% program   : RTKPOST ver.demo5 b34d
% inp file  : D:\Amaster\4semester\Satellitenavigation\U2\roverTest2.obs
% inp file  : D:\Amaster\4semester\Satellitenavigation\U2\baseTest2.obs
% inp file  : D:\Amaster\4semester\Satellitenavigation\U2\base.nav
% obs start : 2022/03/25 14:12:28.0 GPST (week2202 483148.0s)
% obs end   : 2022/03/25 14:16:44.8 GPST (week2202 483404.8s)
% pos mode  : Kinematic
% freqs     : L1+L2/E5b
% solution  : Forward
% elev mask : 5.0 deg
% dynamics  : off
% tidecorr  : off
% ionos opt : OFF
% tropo opt : OFF
% ephemeris : Broadcast
% navi sys  : GPS
% amb res   : Fix and Hold
% val thres : 4.0
% antenna1  :                       ( 0.0000  0.0000  0.0000)
% antenna2  :                       ( 0.0000  0.0000  0.0000)
% ref pos   :  4161163.2044    678675.6669   4770420.4641
%
% (x/y/z-ecef=WGS84,Q=1:fix,2:float,3:sbas,4:dgps,5:single,6:ppp,ns=# of satellites)
%  GPST                      x-ecef(m)      y-ecef(m)      z-ecef(m)   Q  ns   sdx(m)   sdy(m)   sdz(m)  sdxy(m)  sdyz(m)  sdzx(m) age(s)  ratio
2022/03/25 14:12:28.000   4160643.1925    677711.7423   4771038.8028   2   6   2.9176   1.3377   3.0919   0.6141   1.1162   2.4482   0.00    0.0
2022/03/25 14:12:28.100   4160643.1834    677711.7564   4771038.7957   2   6   2.1418   0.9811   2.2706   0.4728   0.8182   1.8052   0.00    0.0
2022/03/25 14:12:28.200   4160643.3933    677711.7684   4771039.0052   2   6   1.7720   0.8114   1.8787   0.3976   0.6766   1.4957   0.00    0.0
2022/03/25 14:12:28.300   4160643.5040    677711.7731   4771039.1112   2   6   1.5449   0.7074   1.6380   0.3495   0.5897   1.3051   0.00    0.0
2022/03/25 14:12:28.400   4160643.4877    677711.7202   4771039.1001   2   6   1.3874   0.6352   1.4710   0.3155   0.5295   1.1726   0.00    0.0
2022/03/25 14:12:28.500   4160643.4762    677711.6866   4771039.0968   2   6   1.2700   0.5814   1.3465   0.2897   0.4847   1.0737   0.00    0.0
2022/03/25 14:12:28.600   4160643.4896    677711.6598   4771039.0928   2   6   1.1781   0.5393   1.2490   0.2694   0.4496   0.9961   0.00    0.0
2022/03/25 14:12:28.700   4160643.4959    677711.6370   4771039.0858   2   6   1.1036   0.5052   1.1700   0.2528   0.4211   0.9333   0.00    0.0
2022/03/25 14:12:28.800   4160643.5245    677711.6520   4771039.0637   2   6   1.0416   0.4769   1.1043   0.2390   0.3974   0.8810   0.00    0.0
2022/03/25 14:12:28.900   4160643.5459    677711.6638   4771039.0493   2   6   0.9890   0.4528   1.0485   0.2271   0.3774   0.8365   0.00    0.0
2022/03/25 14:12:29.000   4160643.5680    677711.6804   4771039.0893   2   6   0.9437   0.4321   1.0003   0.2169   0.3600   0.7982   0.00    0.0
2022/03/25 14:12:29.100   4160643.5892    677711.6963   4771039.1339   2   6   0.9040   0.4139   0.9583   0.2079   0.3449   0.7647   0.00    0.0
2022/03/25 14:12:29.200   4160643.6277    677711.7194   4771039.2049   2   6   0.8690   0.3979   0.9210   0.2000   0.3315   0.7350   0.00    0.0
2022/03/25 14:12:29.300   4160643.6571    677711.7396   4771039.2597   2   6   0.8377   0.3836   0.8878   0.1929   0.3195   0.7086   0.00    0.0
2022/03/25 14:12:29.400   4160643.6820    677711.7593   4771039.2540   2   6   0.8096   0.3707   0.8579   0.1865   0.3088   0.6848   0.00    0.0
2022/03/25 14:12:29.500   4160643.7064    677711.7769   4771039.2539   2   6   0.7841   0.3591   0.8309   0.1807   0.2991   0.6632   0.00    0.0
2022/03/25 14:12:29.600   4160643.7617    677711.7818   4771039.2437   2   6   0.7609   0.3485   0.8062   0.1754   0.2902   0.6435   0.00    0.0
2022/03/25 14:12:29.700   4160643.8046    677711.7895   4771039.2273   2   6   0.7396   0.3387   0.7836   0.1705   0.2820   0.6255   0.00    0.0
2022/03/25 14:12:29.800   4160643.8046    677711.8118   4771039.2074   2   6   0.7200   0.3298   0.7627   0.1660   0.2745   0.6088   0.00    0.0
2022/03/25 14:12:29.900   4160643.8085    677711.8372   4771039.1898   2   6   0.7018   0.3215   0.7434   0.1619   0.2676   0.5935   0.00    0.0
2022/03/25 14:12:30.000   4160643.7896    677711.8882   4771039.1985   2   6   0.6850   0.3138   0.7255   0.1580   0.2612   0.5792   0.00    0.0
2022/03/25 14:12:30.100   4160643.7918    677711.9398   4771039.2196   2   6   0.6693   0.3066   0.7088   0.1544   0.2552   0.5659   0.00    0.0
2022/03/25 14:12:30.200   4160643.7874    677712.0317   4771039.2938   2   6   0.6546   0.3000   0.6932   0.1510   0.2496   0.5534   0.00    0.0
2022/03/25 14:12:30.300   4160643.7549    677712.1103   4771039.2947   2   6   0.6409   0.2936   0.6788   0.1482   0.2443   0.5420   0.00    0.0
2022/03/25 14:12:30.400   4160643.7177    677712.1696   4771039.2446   2   5   0.6282   0.2886   0.6663   0.1442   0.2412   0.5306   0.00    0.0
2022/03/25 14:12:30.500   4160643.6872    677712.2303   4771039.1800   2   5   0.6163   0.2838   0.6545   0.1404   0.2382   0.5199   0.00    0.0
2022/03/25 14:12:30.600   4160643.6677    677712.2932   4771039.1191   2   5   0.6050   0.2792   0.6434   0.1368   0.2353   0.5098   0.00    0.0
2022/03/25 14:12:30.700   4160643.6460    677712.3719   4771039.0435   2   6   0.5942   0.2741   0.6317   0.1345   0.2309   0.5007   0.00    0.0
2022/03/25 14:12:30.800   4160643.6354    677712.4355   4771038.9336   2   6   0.5839   0.2693   0.6207   0.1323   0.2268   0.4921   0.00    0.0
2022/03/25 14:12:30.900   4160643.6431    677712.5228   4771038.8574   2   6   0.5741   0.2648   0.6102   0.1302   0.2228   0.4840   0.00    0.0
2022/03/25 14:12:31.000   4160643.6606    677712.6166   4771038.7862   2   6   0.5648   0.2604   0.6002   0.1282   0.2191   0.4762   0.00    0.0
2022/03/25 14:12:31.100   4160643.6649    677712.7071   4771038.6913   2   6   0.5560   0.2563   0.5907   0.1263   0.2155   0.4688   0.00    0.0
2022/03/25 14:12:31.200   4160643.7332    677712.7893   4771038.5971   2   6   0.5475   0.2523   0.5817   0.1245   0.2122   0.4617   0.00    0.0
2022/03/25 14:12:31.300   4160643.7867    677712.9005   4771038.5447   2   6   0.5394   0.2486   0.5730   0.1227   0.2089   0.4549   0.00    0.0
2022/03/25 14:12:31.400   4160643.8605    677713.0120   4771038.5202   2   6   0.5317   0.2450   0.5647   0.1211   0.2058   0.4484   0.00    0.0
2022/03/25 14:12:31.500   4160643.9498    677713.1183   4771038.4585   2   6   0.5243   0.2415   0.5567   0.1194   0.2029   0.4422   0.00    0.0
2022/03/25 14:12:31.600   4160643.9999    677713.2224   4771038.3145   2   5   0.5173   0.2387   0.5498   0.1172   0.2011   0.4359   0.00    0.0
2022/03/25 14:12:31.700   4160644.0366    677713.3716   4771038.1987   2   5   0.5106   0.2360   0.5431   0.1151   0.1993   0.4299   0.00    0.0
2022/03/25 14:12:31.800   4160644.0902    677713.5451   4771038.1221   2   5   0.5041   0.2333   0.5367   0.1131   0.1976   0.4241   0.00    0.0
2022/03/25 14:12:31.900   4160644.1360    677713.7261   4771038.0338   2   5   0.4979   0.2308   0.5305   0.1112   0.1959   0.4185   0.00    0.0
2022/03/25 14:12:32.000   4160644.2118    677713.9264   4771037.9359   2   5   0.4919   0.2283   0.5245   0.1093   0.1943   0.4132   0.00    0.0
2022/03/25 14:12:32.100   4160644.2697    677714.1319   4771037.8013   2   5   0.4861   0.2260   0.5187   0.1075   0.1927   0.4080   0.00    0.0
2022/03/25 14:12:32.200   4160644.3116    677714.3495   4771037.6434   2   5   0.4805   0.2237   0.5130   0.1058   0.1911   0.4031   0.00    0.0
2022/03/25 14:12:32.300   4160644.3669    677714.6016   4771037.5276   2   5   0.4751   0.2214   0.5076   0.1042   0.1896   0.3983   0.00    0.0
2022/03/25 14:12:32.400   4160644.4243    677714.8539   4771037.4030   2   5   0.4699   0.2193   0.5023   0.1026   0.1881   0.3936   0.00    0.0
2022/03/25 14:12:32.500   4160644.4776    677715.1223   4771037.2753   2   5   0.4648   0.2172   0.4972   0.1010   0.1866   0.3891   0.00    0.0
2022/03/25 14:12:32.600   4160644.5218    677715.3906   4771037.1173   2   5   0.4599   0.2151   0.4923   0.0996   0.1852   0.3848   0.00    0.0
2022/03/25 14:12:32.700   4160644.5911    677715.6638   4771036.9566   2   5   0.4552   0.2132   0.4875   0.0982   0.1838   0.3806   0.00    0.0
2022/03/25 14:12:32.800   4160644.6555    677715.9482   4771036.7959   2   5   0.4506   0.2112   0.4828   0.0968   0.1824   0.3765   0.00    0.0
2022/03/25 14:12:32.900   4160644.7202    677716.2470   4771036.6333   2   5   0.4461   0.2093   0.4782   0.0955   0.1811   0.3726   0.00    0.0
2022/03/25 14:12:33.000   4160644.8000    677716.5434   4771036.4640   2   5   0.4418   0.2075   0.4738   0.0942   0.1798   0.3688   0.00    0.0
2022/03/25 14:12:33.100   4160644.9058    677716.8658   4771036.3475   2   5   0.4376   0.2058   0.4695   0.0930   0.1785   0.3651   0.00    0.0
2022/03/25 14:12:33.200   4160645.0075    677717.1854   4771036.2091   2   5   0.4335   0.2040   0.4654   0.0918   0.1772   0.3615   0.00    0.0
2022/03/25 14:12:33.300   4160645.1281    677717.5017   4771036.0465   2   5   0.4295   0.2023   0.4613   0.0906   0.1760   0.3580   0.00    0.0
2022/03/25 14:12:33.400   4160645.2546    677717.8325   4771035.8761   2   5   0.4257   0.2007   0.4573   0.0895   0.1748   0.3546   0.00    0.0
2022/03/25 14:12:33.500   4160645.3742    677718.1681   4771035.7086   2   5   0.4219   0.1991   0.4534   0.0884   0.1736   0.3513   0.00    0.0
2022/03/25 14:12:33.600   4160645.5247    677718.5141   4771035.5395   2   5   0.4182   0.1975   0.4497   0.0874   0.1724   0.3480   0.00    0.0
2022/03/25 14:12:33.700   4160645.6567    677718.8724   4771035.3523   2   5   0.4147   0.1960   0.4460   0.0863   0.1713   0.3449   0.00    0.0
2022/03/25 14:12:33.800   4160645.8069    677719.2336   4771035.1692   2   5   0.4112   0.1945   0.4424   0.0853   0.1702   0.3419   0.00    0.0
2022/03/25 14:12:33.900   4160645.9445    677719.5965   4771034.9389   2   5   0.4078   0.1930   0.4389   0.0844   0.1691   0.3389   0.00    0.0
2022/03/25 14:12:34.000   4160646.0994    677719.9611   4771034.7303   2   5   0.4045   0.1916   0.4354   0.0835   0.1680   0.3360   0.00    0.0
2022/03/25 14:12:34.100   4160646.2619    677720.3189   4771034.5067   2   5   0.4012   0.1902   0.4321   0.0825   0.1669   0.3332   0.00    0.0
2022/03/25 14:12:34.200   4160646.4317    677720.6874   4771034.2830   2   5   0.3981   0.1889   0.4288   0.0817   0.1659   0.3304   0.00    0.0
2022/03/25 14:12:34.300   4160646.6038    677721.0516   4771034.0660   2   5   0.3950   0.1875   0.4256   0.0808   0.1648   0.3277   0.00    0.0
2022/03/25 14:12:34.400   4160646.7845    677721.4205   4771033.8399   2   5   0.3919   0.1859   0.4221   0.0805   0.1633   0.3253   0.00    0.0
2022/03/25 14:12:34.500   4160646.9636    677721.7807   4771033.5932   2   5   0.3889   0.1844   0.4186   0.0800   0.1617   0.3229   0.00    0.0
2022/03/25 14:12:34.600   4160647.1556    677722.1494   4771033.3743   2   5   0.3860   0.1829   0.4153   0.0797   0.1603   0.3206   0.00    0.0
2022/03/25 14:12:34.700   4160647.3497    677722.5151   4771033.1615   2   5   0.3831   0.1814   0.4120   0.0792   0.1588   0.3183   0.00    0.0
2022/03/25 14:12:34.800   4160647.5591    677722.8703   4771032.9458   2   5   0.3803   0.1800   0.4088   0.0788   0.1574   0.3160   0.00    0.0
2022/03/25 14:12:34.900   4160647.7570    677723.2184   4771032.7032   2   5   0.3776   0.1786   0.4056   0.0784   0.1561   0.3138   0.00    0.0
2022/03/25 14:12:35.000   4160647.9515    677723.5610   4771032.4585   2   5   0.3749   0.1772   0.4026   0.0780   0.1547   0.3117   0.00    0.0
2022/03/25 14:12:35.100   4160648.1712    677723.9067   4771032.2258   2   5   0.3722   0.1759   0.3996   0.0777   0.1534   0.3095   0.00    0.0
2022/03/25 14:12:35.200   4160648.3882    677724.2476   4771031.9819   2   5   0.3697   0.1746   0.3966   0.0773   0.1522   0.3075   0.00    0.0
2022/03/25 14:12:35.300   4160648.5944    677724.5789   4771031.7205   2   5   0.3671   0.1733   0.3938   0.0769   0.1510   0.3054   0.00    0.0
2022/03/25 14:12:35.400   4160648.8089    677724.9337   4771031.5100   2   5   0.3647   0.1721   0.3910   0.0765   0.1497   0.3034   0.00    0.0
2022/03/25 14:12:35.500   4160649.0467    677725.2657   4771031.2762   2   5   0.3622   0.1709   0.3882   0.0761   0.1486   0.3015   0.00    0.0
2022/03/25 14:12:35.600   4160649.2816    677725.5886   4771031.0012   2   5   0.3599   0.1697   0.3855   0.0758   0.1474   0.2996   0.00    0.0
2022/03/25 14:12:35.700   4160649.4977    677725.9288   4771030.7497   2   5   0.3575   0.1685   0.3829   0.0754   0.1463   0.2977   0.00    0.0
2022/03/25 14:12:35.800   4160649.7156    677726.2709   4771030.5177   2   5   0.3552   0.1673   0.3803   0.0751   0.1452   0.2959   0.00    1.4
2022/03/25 14:12:35.900   4160650.1820    677726.6517   4771030.7624   1   5   0.0106   0.0048   0.0112   0.0025   0.0041   0.0090   0.00    3.4
2022/03/25 14:12:36.000   4160650.3810    677726.9612   4771030.4715   1   5   0.0107   0.0052   0.0120   0.0019   0.0050   0.0086   0.00    3.7
2022/03/25 14:12:36.100   4160650.6358    677727.3114   4771030.2338   1   5   0.0106   0.0047   0.0112   0.0024   0.0041   0.0090   0.00    4.2
2022/03/25 14:12:36.200   4160650.8314    677727.6581   4771029.9912   1   5   0.0105   0.0049   0.0112   0.0026   0.0041   0.0091   0.00    4.5
2022/03/25 14:12:36.300   4160650.9772    677727.9378   4771029.6350   1   5   0.0108   0.0055   0.0119   0.0022   0.0050   0.0087   0.00    3.4
2022/03/25 14:12:36.400   4160651.0880    677728.2304   4771029.2924   1   5   0.0106   0.0049   0.0112   0.0026   0.0040   0.0090   0.00    3.5
2022/03/25 14:12:36.500   4160651.2954    677728.7003   4771029.0433   2   5   0.3405   0.1602   0.3637   0.0728   0.1385   0.2837   0.00    2.6
2022/03/25 14:12:36.600   4160651.5031    677729.0545   4771028.7824   2   4   0.3393   0.1597   0.3623   0.0740   0.1387   0.2829   0.00    2.7
2022/03/25 14:12:36.700   4160651.7161    677729.3718   4771028.5141   2   4   0.3382   0.1593   0.3610   0.0751   0.1389   0.2820   0.00    2.7
2022/03/25 14:12:36.800   4160651.9878    677729.7218   4771028.2755   2   5   0.3362   0.1584   0.3590   0.0741   0.1382   0.2802   0.00    2.8
2022/03/25 14:12:36.900   4160652.1911    677730.0632   4771028.0066   2   5   0.3343   0.1576   0.3571   0.0735   0.1375   0.2785   0.00    1.9
2022/03/25 14:12:37.000   4160652.4316    677730.4258   4771027.7798   2   4   0.3334   0.1573   0.3560   0.0750   0.1380   0.2779   0.00    2.9
2022/03/25 14:12:37.100   4160652.6709    677730.7707   4771027.5240   2   4   0.3323   0.1569   0.3548   0.0760   0.1381   0.2771   0.00    2.9
2022/03/25 14:12:37.200   4160652.9089    677731.1200   4771027.2689   2   4   0.3313   0.1565   0.3535   0.0770   0.1383   0.2763   0.00    2.9
2022/03/25 14:12:37.300   4160653.1404    677731.4617   4771027.0236   2   4   0.3303   0.1561   0.3523   0.0779   0.1385   0.2756   0.00    2.9
2022/03/25 14:12:37.400   4160653.3738    677731.7948   4771026.7588   2   4   0.3293   0.1557   0.3511   0.0788   0.1386   0.2748   0.00    3.0
2022/03/25 14:12:37.500   4160653.5803    677732.1352   4771026.4841   2   4   0.3283   0.1553   0.3499   0.0797   0.1388   0.2741   0.00    3.0
2022/03/25 14:12:37.600   4160654.0273    677732.4350   4771026.3828   1   5   0.0171   0.0074   0.0155   0.0090   0.0087   0.0149   0.00    4.3
2022/03/25 14:12:37.700   4160654.2363    677732.7628   4771026.1016   1   5   0.0171   0.0074   0.0154   0.0090   0.0087   0.0150   0.00    4.2
2022/03/25 14:12:37.800   4160654.4762    677733.1146   4771025.8482   1   5   0.0171   0.0073   0.0155   0.0090   0.0087   0.0149   0.00    4.2
2022/03/25 14:12:37.900   4160654.7119    677733.4634   4771025.5892   1   5   0.0170   0.0073   0.0154   0.0090   0.0087   0.0150   0.00    4.3
2022/03/25 14:12:38.000   4160654.9235    677733.8029   4771025.3147   1   5   0.0171   0.0074   0.0154   0.0090   0.0087   0.0150   0.00    4.3
2022/03/25 14:12:38.100   4160655.1541    677734.1495   4771025.0483   1   5   0.0171   0.0074   0.0155   0.0090   0.0087   0.0149   0.00    4.3
2022/03/25 14:12:38.200   4160655.4072    677734.5214   4771024.7888   1   5   0.0171   0.0074   0.0154   0.0090   0.0087   0.0149   0.00    4.4
2022/03/25 14:12:38.300   4160655.6185    677734.8487   4771024.5167   1   5   0.0171   0.0074   0.0154   0.0090   0.0087   0.0149   0.00    4.3
2022/03/25 14:12:38.400   4160655.8498    677735.2012   4771024.2436   1   5   0.0171   0.0074   0.0154   0.0090   0.0087   0.0149   0.00    4.4
2022/03/25 14:12:38.500   4160656.0971    677735.5552   4771023.9913   1   5   0.0171   0.0074   0.0155   0.0090   0.0087   0.0149   0.00    4.4
2022/03/25 14:12:38.600   4160656.3294    677735.9038   4771023.7215   1   5   0.0171   0.0073   0.0154   0.0090   0.0087   0.0150   0.00    4.5
2022/03/25 14:12:38.700   4160656.5570    677736.2528   4771023.4549   1   5   0.0171   0.0074   0.0155   0.0090   0.0087   0.0149   0.00    4.6
2022/03/25 14:12:38.800   4160656.8000    677736.5987   4771023.1874   1   5   0.0171   0.0074   0.0154   0.0089   0.0087   0.0149   0.00    4.6
2022/03/25 14:12:38.900   4160657.0289    677736.9476   4771022.9129   1   5   0.0171   0.0074   0.0155   0.0090   0.0087   0.0149   0.00    4.9
2022/03/25 14:12:39.000   4160657.2742    677737.3140   4771022.6611   1   5   0.0169   0.0067   0.0143   0.0085   0.0075   0.0143   0.00    4.4
2022/03/25 14:12:39.100   4160657.5173    677737.6649   4771022.3961   1   5   0.0168   0.0068   0.0143   0.0085   0.0076   0.0143   0.00    4.5
2022/03/25 14:12:39.200   4160657.7378    677738.0008   4771022.1097   1   5   0.0168   0.0067   0.0143   0.0085   0.0076   0.0143   0.00    4.9
2022/03/25 14:12:39.300   4160657.9879    677738.3586   4771021.8421   1   5   0.0168   0.0066   0.0143   0.0084   0.0076   0.0143   0.00    5.0
2022/03/25 14:12:39.400   4160658.2414    677738.7236   4771021.5995   1   5   0.0168   0.0067   0.0143   0.0085   0.0075   0.0143   0.00    4.6
2022/03/25 14:12:39.500   4160658.4911    677739.0923   4771021.3466   1   5   0.0168   0.0066   0.0142   0.0084   0.0076   0.0144   0.00    4.3
2022/03/25 14:12:39.600   4160658.7615    677739.4671   4771021.1314   1   5   0.0168   0.0067   0.0143   0.0085   0.0075   0.0143   0.00   16.5
2022/03/25 14:12:39.700   4160659.0314    677739.8515   4771020.9118   1   5   0.0171   0.0074   0.0155   0.0089   0.0087   0.0149   0.00    7.6
2022/03/25 14:12:39.800   4160659.1800    677740.1131   4771020.4675   1   4   0.0170   0.0074   0.0154   0.0090   0.0086   0.0149   0.00   12.0
2022/03/25 14:12:39.900   4160659.3989    677740.4624   4771020.1745   1   4   0.0178   0.0090   0.0182   0.0103   0.0112   0.0164   0.00   36.4
2022/03/25 14:12:40.000   4160659.6793    677740.8419   4771019.9485   1   4   0.0171   0.0074   0.0155   0.0090   0.0086   0.0149   0.00    5.7
2022/03/25 14:12:40.100   4160659.9548    677741.2271   4771019.7304   2   4   0.0362   0.0246   0.0424   0.0207   0.0247   0.0333   0.00    1.3
2022/03/25 14:12:40.200   4160660.1298    677741.5335   4771019.3823   2   4   0.0364   0.0249   0.0431   0.0210   0.0254   0.0337   0.00    3.1
2022/03/25 14:12:40.300   4160660.3722    677741.8650   4771019.0854   1   4   0.0177   0.0090   0.0182   0.0103   0.0112   0.0164   0.00   36.1
2022/03/25 14:12:40.400   4160660.6313    677742.2315   4771018.8375   1   4   0.0177   0.0090   0.0182   0.0103   0.0112   0.0164   0.00   35.9
2022/03/25 14:12:40.500   4160660.8779    677742.5736   4771018.5717   1   4   0.0177   0.0090   0.0182   0.0103   0.0112   0.0164   0.00   35.4
2022/03/25 14:12:40.600   4160661.1093    677742.9151   4771018.3123   1   5   0.0178   0.0090   0.0182   0.0103   0.0112   0.0164   0.00   35.0
2022/03/25 14:12:40.700   4160661.3403    677743.2486   4771018.0344   1   5   0.0152   0.0077   0.0159   0.0079   0.0092   0.0137   0.00   34.8
2022/03/25 14:12:40.800   4160661.5815    677743.5897   4771017.7602   1   5   0.0123   0.0062   0.0133   0.0047   0.0066   0.0105   0.00    7.3
2022/03/25 14:12:40.900   4160661.8340    677743.9438   4771017.4793   1   5   0.0123   0.0062   0.0133   0.0046   0.0066   0.0105   0.00    9.6
2022/03/25 14:12:41.000   4160662.0994    677744.2979   4771017.2030   1   5   0.0123   0.0062   0.0133   0.0047   0.0066   0.0105   0.00   11.9
2022/03/25 14:12:41.100   4160662.3469    677744.6449   4771016.9166   1   5   0.0123   0.0062   0.0133   0.0046   0.0066   0.0104   0.00   13.6
2022/03/25 14:12:41.200   4160662.6179    677744.9942   4771016.6439   1   5   0.0123   0.0062   0.0133   0.0046   0.0066   0.0105   0.00   15.4
2022/03/25 14:12:41.300   4160662.8735    677745.3408   4771016.3726   1   5   0.0123   0.0062   0.0133   0.0047   0.0066   0.0104   0.00   17.0
2022/03/25 14:12:41.400   4160663.1223    677745.6739   4771016.0754   1   5   0.0123   0.0063   0.0133   0.0047   0.0066   0.0105   0.00   18.6
2022/03/25 14:12:41.500   4160663.3882    677746.0120   4771015.7886   1   5   0.0123   0.0062   0.0133   0.0047   0.0066   0.0105   0.00   19.8
2022/03/25 14:12:41.600   4160663.6852    677746.3679   4771015.5205   1   5   0.0123   0.0061   0.0133   0.0044   0.0067   0.0105   0.00   19.9
2022/03/25 14:12:41.700   4160663.9695    677746.7348   4771015.2187   1   5   0.0123   0.0062   0.0133   0.0048   0.0066   0.0105   0.00   18.8
2022/03/25 14:12:41.800   4160664.2531    677747.0862   4771014.9208   1   6   0.0122   0.0055   0.0124   0.0048   0.0056   0.0107   0.00    5.6
2022/03/25 14:12:41.900   4160664.5739    677747.4583   4771014.6405   1   6   0.0123   0.0058   0.0124   0.0049   0.0055   0.0106   0.00    7.7
2022/03/25 14:12:42.000   4160664.8835    677747.8186   4771014.3521   1   6   0.0123   0.0056   0.0124   0.0050   0.0055   0.0106   0.00    8.4
2022/03/25 14:12:42.100   4160665.1747    677748.1951   4771014.0330   1   6   0.0122   0.0056   0.0124   0.0048   0.0056   0.0107   0.00    8.0
2022/03/25 14:12:42.200   4160665.3898    677748.5258   4771013.6324   1   5   0.0171   0.0075   0.0155   0.0090   0.0087   0.0149   0.00   24.3
2022/03/25 14:12:42.300   4160665.6698    677748.8875   4771013.2914   1   5   0.0171   0.0074   0.0155   0.0090   0.0087   0.0149   0.00   29.4
2022/03/25 14:12:42.400   4160665.9753    677749.2594   4771012.9603   1   5   0.0171   0.0074   0.0154   0.0090   0.0087   0.0149   0.00   34.0
2022/03/25 14:12:42.500   4160666.2731    677749.6345   4771012.6381   1   5   0.0170   0.0073   0.0154   0.0090   0.0087   0.0149   0.00   36.5
2022/03/25 14:12:42.600   4160666.6011    677750.0332   4771012.3667   1   5   0.0171   0.0075   0.0154   0.0091   0.0086   0.0149   0.00   41.7
2022/03/25 14:12:42.700   4160666.9055    677750.4069   4771012.0343   1   5   0.0171   0.0074   0.0154   0.0090   0.0087   0.0149   0.00   44.2
2022/03/25 14:12:42.800   4160667.2386    677750.7900   4771011.7071   1   5   0.0170   0.0073   0.0154   0.0090   0.0087   0.0150   0.00   42.4
2022/03/25 14:12:42.900   4160667.5179    677751.1469   4771011.3028   1   5   0.0177   0.0090   0.0182   0.0103   0.0112   0.0163   0.00   36.6
2022/03/25 14:12:43.000   4160667.8542    677751.5228   4771010.9584   1   4   0.0177   0.0090   0.0182   0.0102   0.0112   0.0163   0.00   36.2
2022/03/25 14:12:43.100   4160668.1823    677751.9181   4771010.6196   1   4   0.0177   0.0090   0.0182   0.0102   0.0112   0.0164   0.00   36.7
2022/03/25 14:12:43.200   4160668.4946    677752.3073   4771010.2688   1   4   0.0177   0.0090   0.0182   0.0103   0.0112   0.0164   0.00   37.0
2022/03/25 14:12:43.300   4160668.8152    677752.6690   4771009.8980   1   4   0.0177   0.0090   0.0182   0.0103   0.0112   0.0164   0.00   37.2
2022/03/25 14:12:43.400   4160669.1737    677753.0561   4771009.5497   1   4   0.0177   0.0090   0.0182   0.0102   0.0112   0.0163   0.00   36.6
2022/03/25 14:12:43.500   4160669.4919    677753.4169   4771009.1955   1   4   0.0177   0.0090   0.0182   0.0103   0.0112   0.0164   0.00   37.3
2022/03/25 14:12:43.600   4160669.7766    677753.7685   4771008.7746   1   5   0.0174   0.0083   0.0169   0.0097   0.0099   0.0156   0.00   37.3
2022/03/25 14:12:43.700   4160670.1421    677754.1653   4771008.4687   1   4   0.0177   0.0091   0.0182   0.0103   0.0112   0.0163   0.00   37.9
2022/03/25 14:12:43.800   4160670.4927    677754.5408   4771008.1035   1   4   0.0177   0.0090   0.0182   0.0103   0.0112   0.0164   0.00   38.1
2022/03/25 14:12:43.900   4160670.8485    677754.9128   4771007.7292   1   4   0.0177   0.0090   0.0182   0.0103   0.0112   0.0163   0.00   37.4
2022/03/25 14:12:44.000   4160671.1932    677755.2767   4771007.3638   1   4   0.0178   0.0089   0.0181   0.0103   0.0112   0.0164   0.00   37.2
2022/03/25 14:12:44.100   4160671.5161    677755.6417   4771006.9915   1   4   0.0177   0.0090   0.0182   0.0102   0.0112   0.0164   0.00   38.1
2022/03/25 14:12:44.200   4160671.8741    677755.9846   4771006.6079   1   4   0.0177   0.0091   0.0182   0.0104   0.0111   0.0164   0.00   36.2
2022/03/25 14:12:44.300   4160672.2149    677756.3455   4771006.2405   1   5   0.0177   0.0090   0.0182   0.0103   0.0112   0.0164   0.00   36.5
2022/03/25 14:12:44.400   4160672.5936    677756.7227   4771005.8989   1   4   0.0177   0.0090   0.0181   0.0102   0.0112   0.0164   0.00   36.7
2022/03/25 14:12:44.500   4160672.9427    677757.0589   4771005.5121   1   4   0.0177   0.0091   0.0182   0.0103   0.0112   0.0163   0.00   37.0
2022/03/25 14:12:44.600   4160673.3000    677757.4268   4771005.1608   1   4   0.0177   0.0091   0.0182   0.0103   0.0111   0.0164   0.00   38.5
2022/03/25 14:12:44.700   4160673.6705    677757.7843   4771004.7752   1   4   0.0177   0.0090   0.0181   0.0103   0.0112   0.0164   0.00   37.8
2022/03/25 14:12:44.800   4160674.0137    677758.1123   4771004.3766   1   4   0.0177   0.0089   0.0182   0.0102   0.0112   0.0163   0.00   38.7
2022/03/25 14:12:44.900   4160674.3616    677758.4477   4771003.9832   1   4   0.0177   0.0090   0.0181   0.0103   0.0112   0.0164   0.00   38.0
2022/03/25 14:12:45.000   4160674.7063    677758.7655   4771003.5734   1   4   0.0177   0.0090   0.0182   0.0103   0.0112   0.0163   0.00   38.8
2022/03/25 14:12:45.100   4160675.0643    677759.1092   4771003.1989   1   4   0.0177   0.0091   0.0182   0.0103   0.0112   0.0164   0.00   38.9
2022/03/25 14:12:45.200   4160675.4789    677759.4577   4771002.8523   1   4   0.0177   0.0090   0.0181   0.0103   0.0112   0.0164   0.00   37.6
2022/03/25 14:12:45.300   4160675.8375    677759.7980   4771002.4692   1   4   0.0177   0.0090   0.0182   0.0103   0.0112   0.0163   0.00   37.3
2022/03/25 14:12:45.400   4160676.2242    677760.1328   4771002.0945   1   4   0.0177   0.0090   0.0181   0.0103   0.0112   0.0164   0.00   38.2
2022/03/25 14:12:45.500   4160676.5976    677760.4547   4771001.7159   1   4   0.0177   0.0090   0.0181   0.0103   0.0112   0.0164   0.00   38.6
2022/03/25 14:12:45.600   4160676.9827    677760.7828   4771001.3532   1   4   0.0177   0.0090   0.0182   0.0103   0.0112   0.0164   0.00   38.4
2022/03/25 14:12:45.700   4160677.3530    677761.1237   4771000.9630   1   4   0.0177   0.0090   0.0181   0.0103   0.0112   0.0164   0.00   37.7
2022/03/25 14:12:45.800   4160677.7116    677761.4666   4771000.5613   1   4   0.0177   0.0090   0.0181   0.0103   0.0112   0.0164   0.00   37.1
2022/03/25 14:12:45.900   4160678.0673    677761.7833   4771000.1515   1   4   0.0177   0.0090   0.0182   0.0103   0.0112   0.0164   0.00   36.1
2022/03/25 14:12:46.000   4160678.4254    677762.0932   4770999.7392   1   5   0.0177   0.0089   0.0182   0.0103   0.0112   0.0163   0.00   35.1
2022/03/25 14:12:46.100   4160678.8003    677762.4073   4770999.3508   1   5   0.0174   0.0082   0.0168   0.0096   0.0100   0.0156   0.00   34.5
2022/03/25 14:12:46.200   4160679.1994    677762.7520   4770999.0023   1   5   0.0171   0.0075   0.0154   0.0090   0.0087   0.0149   0.00    6.6
2022/03/25 14:12:46.300   4160679.6158    677763.0695   4770998.6325   1   5   0.0171   0.0074   0.0154   0.0091   0.0086   0.0149   0.00    9.6
2022/03/25 14:12:46.400   4160679.9809    677763.3844   4770998.2319   1   5   0.0170   0.0074   0.0154   0.0090   0.0087   0.0149   0.00   12.5
2022/03/25 14:12:46.500   4160680.3834    677763.7069   4770997.8526   1   5   0.0170   0.0074   0.0154   0.0090   0.0087   0.0149   0.00   15.9
2022/03/25 14:12:46.600   4160680.7536    677764.0338   4770997.4589   1   5   0.0170   0.0074   0.0154   0.0090   0.0087   0.0148   0.00   16.8
2022/03/25 14:12:46.700   4160681.1224    677764.3269   4770997.0425   1   5   0.0177   0.0090   0.0182   0.0102   0.0112   0.0163   0.00   36.0
2022/03/25 14:12:46.800   4160681.4964    677764.6260   4770996.6325   1   4   0.0177   0.0090   0.0182   0.0103   0.0112   0.0163   0.00   35.0
2022/03/25 14:12:46.900   4160681.8616    677764.9382   4770996.2452   1   4   0.0177   0.0091   0.0182   0.0103   0.0112   0.0164   0.00   34.6
2022/03/25 14:12:47.000   4160682.4976    677765.3086   4770996.1830   2   4   3.1560   0.8012   4.1322   1.5901   1.8195   3.6113   0.00    0.0
2022/03/25 14:12:47.100   4160682.8718    677765.6189   4770995.7783   2   4   2.3520   0.5972   3.0797   1.1851   1.3561   2.6914   0.00    0.0
2022/03/25 14:12:47.200   4160683.3764    677765.9562   4770995.5490   2   4   1.9569   0.4970   2.5624   0.9861   1.1283   2.2392   0.00    0.0
2022/03/25 14:12:47.300   4160683.8095    677766.2708   4770995.2374   2   4   1.7112   0.4346   2.2407   0.8623   0.9867   1.9581   0.00    0.0
2022/03/25 14:12:47.400   4160684.1061    677766.1644   4770994.1374   2   4   1.5445   1.6817   3.0441   0.6300   2.1257   1.6785   0.00    0.0
2022/03/25 14:12:47.500   4160684.3964    677766.4459   4770993.6689   2   4   1.4206   1.2308   2.4257   0.5576   1.5852   1.5319   0.00    0.0
2022/03/25 14:12:47.600   4160684.7450    677766.8725   4770993.4578   2   4   1.3224   1.0188   2.1181   0.5116   1.3294   1.4220   0.00    0.0
2022/03/25 14:12:47.700   4160685.1011    677767.1810   4770993.0800   2   4   1.2421   0.8892   1.9182   0.4768   1.1715   1.3338   0.00    0.0
2022/03/25 14:12:47.800   4160685.4827    677767.4082   4770992.6178   2   4   1.1749   0.7994   1.7720   0.4489   1.0611   1.2605   0.00    0.0
2022/03/25 14:12:47.900   4160685.8815    677767.4402   4770991.8469   2   4   1.1179   1.6742   2.7853   0.4800   2.0799   1.2283   0.00    0.0
2022/03/25 14:12:48.000   4160686.2598    677767.0302   4770990.4328   2   4   1.0681   1.6732   2.7588   0.4626   2.0752   1.1758   0.00    0.0
2022/03/25 14:12:48.100   4160686.6998    677767.3078   4770990.0609   2   4   1.0242   1.2227   2.1478   0.4165   1.5346   1.1123   0.00    0.0
2022/03/25 14:12:48.200   4160687.1202    677767.7360   4770989.8827   2   4   0.9855   1.0112   1.8632   0.3909   1.2817   1.0648   0.00    0.0
2022/03/25 14:12:48.300   4160687.5051    677768.0373   4770989.5521   2   4   0.9509   0.8822   1.6876   0.3721   1.1274   1.0247   0.00    0.0
2022/03/25 14:12:48.400   4160687.8534    677768.5470   4770989.4242   2   4   0.9197   0.7930   1.5636   0.3569   1.0205   0.9895   0.00    0.0
2022/03/25 14:12:48.500   4160688.5714    677769.3431   4770989.4468   2   4   2.1639   2.1284   1.9909   2.0157   1.8904   1.8888   0.00    0.0
2022/03/25 14:12:48.900   4160690.2273    677770.8574   4770988.2372   2   4   1.5716   1.4065   1.5090   1.3474   1.2988   1.3816   0.00    0.0
2022/03/25 14:12:49.000   4160690.5789    677771.1361   4770987.9464   2   4   1.4206   1.1927   1.3479   1.1567   1.1012   1.2236   0.00    0.0
2022/03/25 14:12:49.600   4160692.4424    677772.4175   4770985.4970   2   4   1.1378   0.8671   1.1196   0.8546   0.8459   0.9999   0.00    0.0
2022/03/25 14:12:49.700   4160692.7641    677772.6455   4770985.0758   2   4   1.0975   0.8171   1.0880   0.8088   0.8082   0.9673   0.00    0.0
2022/03/25 14:12:49.800   4160693.1797    677772.9343   4770984.7473   2   5   1.0575   0.7620   1.0434   0.7604   0.7588   0.9284   0.00    0.0
2022/03/25 14:12:49.900   4160693.5566    677773.2095   4770984.3820   2   5   1.0238   0.7171   1.0059   0.7209   0.7184   0.8962   0.00    0.0
2022/03/25 14:12:50.000   4160693.9681    677773.4792   4770984.0511   2   5   0.9946   0.6793   0.9734   0.6876   0.6845   0.8688   0.00    0.0
2022/03/25 14:12:50.100   4160694.3417    677773.7322   4770983.6840   2   5   0.9690   0.6471   0.9449   0.6592   0.6554   0.8449   0.00    0.0
2022/03/25 14:12:50.200   4160694.7156    677773.9970   4770983.2762   2   5   0.9460   0.6192   0.9194   0.6345   0.6302   0.8237   0.00    0.0
2022/03/25 14:12:50.300   4160695.0846    677774.2461   4770982.8696   2   5   0.9252   0.5946   0.8965   0.6126   0.6079   0.8047   0.00    0.0
2022/03/25 14:12:50.400   4160695.5181    677774.5226   4770982.5663   2   5   0.9034   0.5666   0.8673   0.5883   0.5794   0.7822   0.00    0.0
2022/03/25 14:12:50.500   4160696.0182    677774.8412   4770982.3366   2   5   0.8839   0.5424   0.8417   0.5672   0.5549   0.7625   0.00    0.0
2022/03/25 14:12:50.600   4160696.5943    677775.1964   4770982.2222   2   5   0.8662   0.5212   0.8190   0.5485   0.5336   0.7450   0.00    0.0
2022/03/25 14:12:50.700   4160696.9514    677775.3868   4770981.7823   2   5   0.8492   0.5015   0.7977   0.5310   0.5136   0.7282   0.00    0.0
2022/03/25 14:12:50.800   4160697.3474    677775.6180   4770981.4603   2   4   0.8367   0.4915   0.7886   0.5212   0.5067   0.7193   0.00    0.0
2022/03/25 14:12:50.900   4160697.7066    677775.8326   4770981.0871   2   4   0.8249   0.4821   0.7799   0.5120   0.5001   0.7108   0.00    0.0
2022/03/25 14:12:51.000   4160698.0365    677776.0402   4770980.6991   2   4   0.8136   0.4734   0.7715   0.5034   0.4939   0.7025   0.00    0.0
2022/03/25 14:12:51.100   4160698.3779    677776.2501   4770980.2939   2   4   0.8028   0.4651   0.7633   0.4952   0.4879   0.6946   0.00    0.0
2022/03/25 14:12:51.200   4160698.7615    677776.4604   4770979.9262   2   4   0.7925   0.4574   0.7554   0.4875   0.4821   0.6870   0.00    0.0
2022/03/25 14:12:51.300   4160699.1685    677776.6784   4770979.5606   2   4   0.7826   0.4500   0.7478   0.4802   0.4766   0.6796   0.00    0.0
2022/03/25 14:12:51.400   4160699.5471    677776.8870   4770979.1779   2   4   0.7732   0.4430   0.7403   0.4733   0.4712   0.6725   0.00    0.0
2022/03/25 14:12:51.500   4160699.9267    677777.0990   4770978.7966   2   4   0.7641   0.4364   0.7331   0.4667   0.4661   0.6656   0.00    0.0
2022/03/25 14:12:51.600   4160700.2870    677777.2859   4770978.3642   2   4   0.7554   0.4301   0.7261   0.4604   0.4612   0.6590   0.00    0.0
2022/03/25 14:12:51.700   4160700.6554    677777.4780   4770977.9397   2   4   0.7469   0.4241   0.7193   0.4544   0.4564   0.6525   0.00    0.0
2022/03/25 14:12:51.800   4160701.0501    677777.7089   4770977.5587   2   4   0.7388   0.4183   0.7127   0.4487   0.4518   0.6463   0.00    0.0
2022/03/25 14:12:51.900   4160701.4788    677777.9340   4770977.1773   2   4   0.7310   0.4128   0.7063   0.4432   0.4473   0.6402   0.00    0.0
2022/03/25 14:12:52.000   4160701.8824    677778.1740   4770976.7767   2   4   0.7234   0.4076   0.7001   0.4379   0.4429   0.6343   0.00    0.0
2022/03/25 14:12:52.100   4160702.2803    677778.4094   4770976.3969   2   4   0.7161   0.4025   0.6940   0.4328   0.4387   0.6286   0.00    0.0
2022/03/25 14:12:52.200   4160702.6966    677778.6412   4770975.9919   2   4   0.7090   0.3977   0.6881   0.4279   0.4347   0.6230   0.00    0.0
2022/03/25 14:12:52.300   4160703.1194    677778.8606   4770975.5850   2   4   0.7021   0.3930   0.6823   0.4232   0.4307   0.6176   0.00    0.0
2022/03/25 14:12:52.400   4160703.5694    677779.1161   4770975.2260   2   4   0.6954   0.3885   0.6766   0.4187   0.4269   0.6123   0.00    0.0
2022/03/25 14:12:52.500   4160703.9615    677779.3111   4770974.7779   2   4   0.6890   0.3841   0.6712   0.4143   0.4231   0.6071   0.00    0.0
2022/03/25 14:12:52.600   4160704.2819    677779.4672   4770974.2361   2   5   0.6819   0.3781   0.6629   0.4087   0.4167   0.6005   0.00    0.0
2022/03/25 14:12:52.700   4160704.7226    677779.6977   4770973.8382   2   4   0.6759   0.3742   0.6579   0.4047   0.4134   0.5958   0.00    0.0
2022/03/25 14:12:52.800   4160705.1437    677779.9093   4770973.4133   2   4   0.6700   0.3703   0.6528   0.4007   0.4100   0.5910   0.00    0.0
2022/03/25 14:12:52.900   4160705.5872    677780.1195   4770972.9832   2   4   0.6642   0.3666   0.6479   0.3969   0.4067   0.5864   0.00    0.0
2022/03/25 14:12:53.000   4160706.0366    677780.3515   4770972.5708   2   4   0.6586   0.3630   0.6431   0.3933   0.4035   0.5819   0.00    0.0
2022/03/25 14:12:53.100   4160706.4720    677780.5603   4770972.1393   2   4   0.6532   0.3595   0.6383   0.3897   0.4004   0.5775   0.00    0.0
2022/03/25 14:12:53.200   4160706.8998    677780.7830   4770971.7017   2   4   0.6479   0.3561   0.6337   0.3862   0.3973   0.5732   0.00    0.0
2022/03/25 14:12:53.300   4160707.3381    677781.0060   4770971.2713   2   4   0.6427   0.3528   0.6292   0.3828   0.3943   0.5690   0.00    0.0
2022/03/25 14:12:53.400   4160707.6926    677781.1854   4770970.7423   2   5   0.6370   0.3480   0.6223   0.3783   0.3891   0.5635   0.00    0.0
2022/03/25 14:12:53.500   4160708.0938    677781.3912   4770970.2758   2   5   0.6315   0.3436   0.6159   0.3741   0.3843   0.5584   0.00    0.0
2022/03/25 14:12:53.600   4160708.5522    677781.6110   4770969.8317   2   5   0.6263   0.3393   0.6098   0.3701   0.3797   0.5534   0.00    0.0
2022/03/25 14:12:53.700   4160708.9897    677781.8302   4770969.3634   2   5   0.6211   0.3352   0.6038   0.3662   0.3752   0.5486   0.00    0.0
2022/03/25 14:12:53.800   4160709.4674    677782.0669   4770968.9410   2   5   0.6161   0.3313   0.5980   0.3625   0.3709   0.5439   0.00    0.0
2022/03/25 14:12:53.900   4160709.9383    677782.2991   4770968.5071   2   5   0.6113   0.3275   0.5924   0.3588   0.3668   0.5394   0.00    0.0
2022/03/25 14:12:54.000   4160710.4216    677782.5358   4770968.0588   2   5   0.6060   0.3225   0.5851   0.3543   0.3609   0.5339   0.00    0.0
2022/03/25 14:12:54.100   4160710.9142    677782.7787   4770967.6543   2   5   0.6008   0.3177   0.5779   0.3499   0.3552   0.5284   0.00    0.0
2022/03/25 14:12:54.200   4160711.4056    677783.0146   4770967.2352   2   5   0.5960   0.3133   0.5714   0.3459   0.3500   0.5235   0.00    0.0
2022/03/25 14:12:54.300   4160711.8670    677783.2426   4770966.7870   2   5   0.5914   0.3092   0.5651   0.3421   0.3452   0.5188   0.00    0.0
2022/03/25 14:12:54.400   4160712.3186    677783.4538   4770966.3250   2   5   0.5868   0.3052   0.5591   0.3385   0.3405   0.5142   0.00    0.0
2022/03/25 14:12:54.500   4160712.7550    677783.6662   4770965.8472   2   5   0.5824   0.3014   0.5533   0.3350   0.3361   0.5098   0.00    0.0
2022/03/25 14:12:54.600   4160713.1961    677783.8730   4770965.3621   2   5   0.5781   0.2977   0.5478   0.3316   0.3318   0.5055   0.00    0.0
2022/03/25 14:12:54.700   4160713.6680    677784.0913   4770964.9117   2   5   0.5739   0.2942   0.5424   0.3283   0.3277   0.5014   0.00    0.0
2022/03/25 14:12:54.800   4160714.1148    677784.3037   4770964.4374   2   5   0.5698   0.2908   0.5372   0.3251   0.3238   0.4973   0.00    0.0
2022/03/25 14:12:54.900   4160714.5826    677784.5209   4770963.9872   2   5   0.5658   0.2875   0.5322   0.3221   0.3200   0.4934   0.00    0.0
2022/03/25 14:12:55.000   4160715.0166    677784.7290   4770963.5078   2   5   0.5619   0.2844   0.5273   0.3191   0.3164   0.4896   0.00    0.0
2022/03/25 14:12:55.100   4160715.4662    677784.9441   4770963.0425   2   5   0.5580   0.2813   0.5226   0.3162   0.3128   0.4859   0.00    0.0
2022/03/25 14:12:55.200   4160715.9166    677785.1586   4770962.5834   2   5   0.5543   0.2784   0.5180   0.3134   0.3094   0.4823   0.00    0.0
2022/03/25 14:12:55.300   4160716.3647    677785.3668   4770962.1165   2   5   0.5506   0.2755   0.5135   0.3107   0.3061   0.4787   0.00    0.0
2022/03/25 14:12:55.400   4160716.8313    677785.5782   4770961.6717   2   5   0.5470   0.2727   0.5092   0.3081   0.3030   0.4753   0.00    0.0
2022/03/25 14:12:55.500   4160717.2841    677785.7927   4770961.2142   2   5   0.5435   0.2701   0.5050   0.3055   0.2999   0.4719   0.00    0.0
2022/03/25 14:12:55.600   4160717.7479    677786.0031   4770960.7752   2   5   0.5400   0.2675   0.5009   0.3030   0.2969   0.4686   0.00    0.0
2022/03/25 14:12:55.700   4160718.2076    677786.2043   4770960.3372   2   5   0.5367   0.2649   0.4969   0.3006   0.2940   0.4654   0.00    0.0
2022/03/25 14:12:55.800   4160718.6838    677786.4200   4770959.9324   2   5   0.5333   0.2625   0.4931   0.2982   0.2912   0.4623   0.00    0.0
2022/03/25 14:12:55.900   4160719.1285    677786.6158   4770959.4984   2   5   0.5301   0.2601   0.4893   0.2959   0.2885   0.4592   0.00    0.0
2022/03/25 14:12:56.000   4160719.5851    677786.8269   4770959.0838   2   5   0.5269   0.2578   0.4856   0.2936   0.2858   0.4562   0.00    0.0
2022/03/25 14:12:56.100   4160720.0507    677787.0355   4770958.6958   2   5   0.5237   0.2555   0.4820   0.2914   0.2833   0.4532   0.00    0.0
2022/03/25 14:12:56.200   4160720.4817    677787.2402   4770958.2899   2   5   0.5207   0.2533   0.4785   0.2892   0.2808   0.4503   0.00    0.0
2022/03/25 14:12:56.300   4160720.9234    677787.4477   4770957.9076   2   5   0.5176   0.2512   0.4750   0.2871   0.2783   0.4475   0.00    0.0
2022/03/25 14:12:56.400   4160721.3521    677787.6619   4770957.5194   2   5   0.5146   0.2491   0.4717   0.2851   0.2759   0.4447   0.00    0.0
2022/03/25 14:12:56.500   4160721.8168    677787.8793   4770957.1877   2   5   0.5117   0.2471   0.4684   0.2831   0.2736   0.4420   0.00    0.0
2022/03/25 14:12:56.600   4160722.2399    677788.0670   4770956.7940   2   5   0.5088   0.2451   0.4651   0.2811   0.2714   0.4393   0.00    0.0
2022/03/25 14:12:56.700   4160722.6106    677788.2413   4770956.3672   2   5   0.5062   0.2436   0.4628   0.2795   0.2699   0.4371   0.00    0.0
2022/03/25 14:12:56.800   4160722.9949    677788.4324   4770955.9790   2   4   0.5037   0.2425   0.4610   0.2782   0.2690   0.4352   0.00    0.0
2022/03/25 14:12:56.900   4160723.4092    677788.6361   4770955.6271   2   4   0.5012   0.2414   0.4592   0.2769   0.2681   0.4333   0.00    0.0
2022/03/25 14:12:57.000   4160723.7744    677788.8137   4770955.2346   2   4   0.4988   0.2403   0.4574   0.2756   0.2671   0.4314   0.00    0.0
2022/03/25 14:12:57.100   4160724.1593    677789.0027   4770954.8771   2   4   0.4964   0.2393   0.4556   0.2744   0.2662   0.4296   0.00    0.0
2022/03/25 14:12:57.200   4160724.5153    677789.1909   4770954.5028   2   4   0.4941   0.2382   0.4538   0.2731   0.2653   0.4277   0.00    0.0
2022/03/25 14:12:57.300   4160724.9060    677789.3848   4770954.1770   2   4   0.4918   0.2372   0.4521   0.2719   0.2645   0.4259   0.00    0.0
2022/03/25 14:12:57.400   4160725.2835    677789.5773   4770953.8494   2   4   0.4895   0.2362   0.4504   0.2707   0.2636   0.4242   0.00    0.0
2022/03/25 14:12:57.500   4160725.6274    677789.7580   4770953.4890   2   4   0.4872   0.2352   0.4487   0.2695   0.2627   0.4224   0.00    0.0
2022/03/25 14:12:57.600   4160725.9930    677789.9550   4770953.1682   2   4   0.4850   0.2342   0.4470   0.2683   0.2619   0.4207   0.00    0.0
2022/03/25 14:12:57.700   4160726.3361    677790.1485   4770952.8346   2   4   0.4828   0.2332   0.4454   0.2672   0.2610   0.4190   0.00    0.0
2022/03/25 14:12:57.800   4160726.7033    677790.3561   4770952.5513   2   4   0.4807   0.2323   0.4438   0.2661   0.2602   0.4173   0.00    0.0
2022/03/25 14:12:57.900   4160727.0298    677790.5751   4770952.2369   2   4   0.4785   0.2313   0.4422   0.2649   0.2593   0.4156   0.00    0.0
2022/03/25 14:12:58.000   4160727.3961    677790.8012   4770951.9872   2   4   0.4764   0.2304   0.4406   0.2638   0.2585   0.4140   0.00    0.0
2022/03/25 14:12:58.100   4160729.2423    677791.3994   4770953.7033   2   4   3.1580   0.8368   4.1280   1.6067   1.8356   3.6035   0.00    0.0
2022/03/25 14:12:58.200   4160729.2154    677791.5194   4770952.9571   2   4   2.3692   0.6427   3.0838   1.2096   1.3783   2.6937   0.00    0.0
2022/03/25 14:12:58.300   4160729.3760    677791.7229   4770952.5221   2   4   1.9827   0.5496   2.5702   1.0156   1.1545   2.2463   0.00    0.0
2022/03/25 14:12:58.400   4160729.3628    677791.8932   4770951.8592   2   4   1.7432   0.4930   2.2508   0.8958   1.0159   1.9684   0.00    0.0
2022/03/25 14:12:58.500   4160729.5055    677792.1067   4770951.3901   2   4   1.5766   0.4542   2.0279   0.8126   0.9195   1.7744   0.00    0.0
2022/03/25 14:12:58.600   4160729.7401    677792.3579   4770951.1045   2   4   1.4522   0.4257   1.8610   0.7507   0.8477   1.6293   0.00    0.0
2022/03/25 14:12:58.700   4160729.9911    677792.6169   4770950.8659   2   5   1.3037   0.3920   1.6693   0.6767   0.7634   1.4591   0.00    0.0
2022/03/25 14:12:58.800   4160730.4003    677792.9348   4770950.8324   2   5   1.2165   0.3709   1.5493   0.6316   0.7105   1.3557   0.00    0.0
2022/03/25 14:12:58.900   4160730.7436    677793.2616   4770950.7455   2   5   1.1485   0.3548   1.4556   0.5968   0.6695   1.2750   0.00    0.0
2022/03/25 14:12:59.000   4160730.8576    677793.5329   4770950.4080   2   5   1.0919   0.3414   1.3772   0.5678   0.6352   1.2076   0.00    0.0
2022/03/25 14:12:59.100   4160731.0517    677793.8413   4770950.1699   2   5   1.0438   0.3301   1.3103   0.5431   0.6061   1.1501   0.00    0.0
2022/03/25 14:12:59.200   4160731.2327    677794.1675   4770949.9553   2   5   1.0023   0.3203   1.2525   0.5218   0.5809   1.1004   0.00    0.0
2022/03/25 14:12:59.300   4160731.3924    677794.5049   4770949.7236   2   5   0.9659   0.3118   1.2018   0.5032   0.5588   1.0569   0.00    0.0
2022/03/25 14:12:59.400   4160731.5218    677794.8300   4770949.4898   2   5   0.9338   0.3043   1.1569   0.4867   0.5393   1.0183   0.00    0.0
2022/03/25 14:12:59.500   4160731.6679    677795.1894   4770949.2860   2   5   0.9051   0.2976   1.1167   0.4720   0.5219   0.9838   0.00    0.0
2022/03/25 14:12:59.600   4160731.7817    677795.5408   4770949.0774   2   5   0.8793   0.2916   1.0805   0.4588   0.5062   0.9528   0.00    0.0
2022/03/25 14:12:59.700   4160731.9026    677795.9085   4770948.8993   2   5   0.8560   0.2861   1.0476   0.4468   0.4919   0.9246   0.00    0.0
2022/03/25 14:12:59.800   4160731.9600    677796.2637   4770948.6705   2   5   0.8347   0.2811   1.0176   0.4359   0.4789   0.8989   0.00    0.0
2022/03/25 14:12:59.900   4160731.9907    677796.6235   4770948.4466   2   5   0.8152   0.2765   0.9901   0.4259   0.4670   0.8754   0.00    0.0
2022/03/25 14:13:00.000   4160731.9804    677796.9926   4770948.2101   2   5   0.7972   0.2722   0.9647   0.4167   0.4561   0.8536   0.00    0.0
2022/03/25 14:13:00.100   4160731.9616    677797.3621   4770947.9964   2   5   0.7805   0.2683   0.9413   0.4082   0.4459   0.8335   0.00    0.0
2022/03/25 14:13:00.200   4160731.9668    677797.7324   4770947.8342   2   5   0.7622   0.2634   0.9148   0.3982   0.4338   0.8111   0.00    0.0
2022/03/25 14:13:00.300   4160731.9787    677798.1204   4770947.6861   2   5   0.7451   0.2588   0.8900   0.3887   0.4224   0.7901   0.00    0.0
2022/03/25 14:13:00.400   4160731.9795    677798.5071   4770947.5625   2   5   0.7301   0.2548   0.8682   0.3806   0.4124   0.7717   0.00    0.0
2022/03/25 14:13:00.500   4160731.9787    677798.9066   4770947.4624   2   5   0.7162   0.2510   0.8479   0.3730   0.4032   0.7546   0.00    0.0
2022/03/25 14:13:00.600   4160731.9659    677799.2957   4770947.3794   2   5   0.7033   0.2475   0.8291   0.3660   0.3947   0.7387   0.00    0.0
2022/03/25 14:13:00.700   4160731.9391    677799.6930   4770947.2981   2   5   0.6912   0.2442   0.8115   0.3594   0.3867   0.7238   0.00    0.0
2022/03/25 14:13:00.800   4160731.9157    677800.0837   4770947.2250   2   6   0.6749   0.2406   0.7903   0.3513   0.3773   0.7049   0.00    0.0
2022/03/25 14:13:00.900   4160731.8966    677800.4801   4770947.1613   2   6   0.6614   0.2374   0.7722   0.3445   0.3692   0.6890   0.00    0.0
2022/03/25 14:13:01.000   4160731.8392    677800.8690   4770947.0865   2   6   0.6489   0.2344   0.7553   0.3381   0.3617   0.6741   0.00    0.0
2022/03/25 14:13:01.100   4160731.7634    677801.2453   4770947.0058   2   6   0.6371   0.2316   0.7395   0.3321   0.3547   0.6602   0.00    0.0
2022/03/25 14:13:01.200   4160731.6869    677801.6344   4770946.9587   2   6   0.6260   0.2289   0.7246   0.3265   0.3480   0.6472   0.00    0.0
2022/03/25 14:13:01.300   4160731.5722    677802.0130   4770946.8874   2   6   0.6144   0.2262   0.7090   0.3208   0.3412   0.6335   0.00    0.0
2022/03/25 14:13:01.400   4160731.4665    677802.3829   4770946.8449   2   6   0.6046   0.2239   0.6958   0.3158   0.3354   0.6219   0.00    0.0
2022/03/25 14:13:01.500   4160731.3658    677802.7489   4770946.8053   2   6   0.5953   0.2216   0.6834   0.3112   0.3298   0.6110   0.00    0.0
2022/03/25 14:13:01.600   4160731.2338    677803.1056   4770946.7611   2   6   0.5865   0.2194   0.6716   0.3067   0.3246   0.6006   0.00    0.0
2022/03/25 14:13:01.700   4160731.1260    677803.4616   4770946.7725   2   6   0.5782   0.2173   0.6603   0.3025   0.3196   0.5908   0.00    0.0
2022/03/25 14:13:01.800   4160731.0234    677803.8154   4770946.7924   2   5   0.5688   0.2152   0.6493   0.2980   0.3145   0.5804   0.00    0.0
2022/03/25 14:13:01.900   4160730.8871    677804.1661   4770946.7775   2   5   0.5602   0.2132   0.6389   0.2938   0.3097   0.5708   0.00    0.0
2022/03/25 14:13:02.000   4160730.7939    677804.5213   4770946.8165   2   5   0.5523   0.2113   0.6293   0.2899   0.3052   0.5620   0.00    0.0
2022/03/25 14:13:02.100   4160730.6668    677804.8681   4770946.8349   2   5   0.5458   0.2096   0.6218   0.2865   0.3014   0.5550   0.00    0.0
2022/03/25 14:13:02.200   4160730.5730    677805.2167   4770946.8958   2   6   0.5355   0.2064   0.6109   0.2804   0.2949   0.5441   0.00    0.0
2022/03/25 14:13:02.300   4160730.4436    677805.5422   4770946.9570   2   6   0.5268   0.2039   0.6015   0.2754   0.2895   0.5349   0.00    0.0
2022/03/25 14:13:02.400   4160730.3165    677805.8774   4770947.0231   2   6   0.5185   0.2014   0.5926   0.2706   0.2844   0.5262   0.00    0.0
2022/03/25 14:13:02.500   4160730.1853    677806.2121   4770947.0810   2   6   0.5106   0.1991   0.5840   0.2661   0.2795   0.5178   0.00    0.0
2022/03/25 14:13:02.600   4160730.0364    677806.5394   4770947.1451   2   6   0.5031   0.1968   0.5759   0.2617   0.2748   0.5098   0.00    0.0
2022/03/25 14:13:02.700   4160729.8986    677806.8632   4770947.2076   2   6   0.4959   0.1947   0.5680   0.2576   0.2703   0.5022   0.00    0.0
2022/03/25 14:13:02.800   4160729.7542    677807.1870   4770947.2827   2   6   0.4890   0.1926   0.5606   0.2536   0.2661   0.4949   0.00    0.0
2022/03/25 14:13:02.900   4160729.6197    677807.5186   4770947.3723   2   6   0.4823   0.1906   0.5534   0.2498   0.2619   0.4879   0.00    0.0
2022/03/25 14:13:03.000   4160729.4625    677807.8455   4770947.4459   2   6   0.4759   0.1887   0.5465   0.2461   0.2580   0.4811   0.00    0.0
2022/03/25 14:13:03.100   4160729.2835    677808.1666   4770947.5150   2   6   0.4698   0.1869   0.5398   0.2426   0.2542   0.4746   0.00    0.0
2022/03/25 14:13:03.200   4160729.1002    677808.4865   4770947.5880   2   6   0.4639   0.1851   0.5334   0.2392   0.2505   0.4684   0.00    0.0
2022/03/25 14:13:03.300   4160728.9347    677808.8176   4770947.6914   2   6   0.4582   0.1834   0.5272   0.2360   0.2469   0.4624   0.00    0.0
2022/03/25 14:13:03.400   4160728.7770    677809.1548   4770947.8101   2   6   0.4527   0.1818   0.5212   0.2329   0.2435   0.4566   0.00    0.0
2022/03/25 14:13:03.500   4160728.6165    677809.4978   4770947.9336   2   6   0.4474   0.1802   0.5155   0.2298   0.2402   0.4509   0.00    0.0
2022/03/25 14:13:03.600   4160728.4074    677809.8198   4770948.0208   2   6   0.4423   0.1786   0.5099   0.2269   0.2370   0.4455   0.00    0.0
2022/03/25 14:13:03.700   4160728.1864    677810.1454   4770948.1189   2   6   0.4374   0.1771   0.5045   0.2241   0.2339   0.4403   0.00    0.0
2022/03/25 14:13:03.800   4160727.9726    677810.4798   4770948.2337   2   6   0.4326   0.1757   0.4993   0.2214   0.2310   0.4352   0.00    0.0
2022/03/25 14:13:03.900   4160727.7685    677810.8181   4770948.3554   2   6   0.4279   0.1742   0.4942   0.2187   0.2281   0.4303   0.00    0.0
2022/03/25 14:13:04.000   4160727.5525    677811.1581   4770948.4715   2   6   0.4234   0.1729   0.4893   0.2162   0.2253   0.4255   0.00    0.0
2022/03/25 14:13:04.100   4160727.3341    677811.4942   4770948.5977   2   6   0.4190   0.1715   0.4845   0.2137   0.2225   0.4209   0.00    0.0
2022/03/25 14:13:04.200   4160727.0843    677811.8246   4770948.7083   2   6   0.4148   0.1702   0.4798   0.2113   0.2199   0.4164   0.00    0.0
2022/03/25 14:13:04.300   4160726.8299    677812.1534   4770948.8371   2   6   0.4106   0.1690   0.4753   0.2089   0.2173   0.4120   0.00    0.0
2022/03/25 14:13:04.400   4160726.5984    677812.4887   4770948.9770   2   6   0.4066   0.1677   0.4709   0.2067   0.2148   0.4078   0.00    0.0
2022/03/25 14:13:04.500   4160726.3637    677812.8274   4770949.1135   2   6   0.4027   0.1665   0.4667   0.2045   0.2124   0.4037   0.00    0.0
2022/03/25 14:13:04.600   4160726.1413    677813.1710   4770949.2617   2   6   0.3989   0.1654   0.4625   0.2023   0.2100   0.3997   0.00    0.0
2022/03/25 14:13:04.700   4160725.9078    677813.5111   4770949.4119   2   6   0.3952   0.1642   0.4584   0.2002   0.2077   0.3957   0.00    0.0
2022/03/25 14:13:04.800   4160725.6625    677813.8471   4770949.5467   2   6   0.3916   0.1631   0.4544   0.1982   0.2055   0.3919   0.00    0.0
2022/03/25 14:13:04.900   4160725.4140    677814.1854   4770949.6666   2   6   0.3877   0.1619   0.4503   0.1960   0.2030   0.3879   0.00    0.0
2022/03/25 14:13:05.000   4160725.1783    677814.5459   4770949.7837   2   5   0.3853   0.1613   0.4474   0.1948   0.2017   0.3852   0.00    0.0
2022/03/25 14:13:05.100   4160724.9139    677814.8863   4770949.8731   2   5   0.3830   0.1606   0.4445   0.1938   0.2003   0.3827   0.00    0.0
2022/03/25 14:13:05.200   4160724.6985    677815.2418   4770950.0253   2   5   0.3806   0.1600   0.4416   0.1927   0.1990   0.3801   0.00    0.0
2022/03/25 14:13:05.300   4160724.4485    677815.5893   4770950.1438   2   5   0.3784   0.1593   0.4388   0.1916   0.1977   0.3776   0.00    0.0
2022/03/25 14:13:05.400   4160724.2445    677815.9466   4770950.2954   2   5   0.3761   0.1587   0.4361   0.1906   0.1964   0.3751   0.00    0.0
2022/03/25 14:13:05.500   4160724.0240    677816.3001   4770950.4322   2   5   0.3739   0.1581   0.4333   0.1896   0.1952   0.3727   0.00    0.0
2022/03/25 14:13:05.600   4160723.7682    677816.6519   4770950.5288   2   5   0.3714   0.1575   0.4304   0.1884   0.1938   0.3700   0.00    0.0
2022/03/25 14:13:05.700   4160723.5138    677817.0022   4770950.6296   2   5   0.3690   0.1569   0.4277   0.1874   0.1926   0.3675   0.00    0.0
2022/03/25 14:13:05.800   4160723.2818    677817.3498   4770950.7573   2   5   0.3668   0.1563   0.4252   0.1865   0.1915   0.3652   0.00    0.0
2022/03/25 14:13:05.900   4160723.0212    677817.7108   4770950.8491   2   5   0.3648   0.1557   0.4228   0.1856   0.1904   0.3630   0.00    0.0
2022/03/25 14:13:06.000   4160722.7933    677818.0667   4770950.9717   2   5   0.3629   0.1552   0.4206   0.1847   0.1894   0.3610   0.00    0.0
2022/03/25 14:13:06.100   4160722.5745    677818.4216   4770951.1050   2   5   0.3610   0.1546   0.4183   0.1839   0.1883   0.3590   0.00    0.0
2022/03/25 14:13:06.200   4160722.3324    677818.7763   4770951.2167   2   5   0.3592   0.1541   0.4161   0.1830   0.1873   0.3570   0.00    0.0
2022/03/25 14:13:06.300   4160722.1218    677819.1275   4770951.3665   2   5   0.3574   0.1536   0.4140   0.1822   0.1863   0.3551   0.00    0.0
2022/03/25 14:13:06.400   4160721.8785    677819.4680   4770951.4850   2   5   0.3556   0.1531   0.4119   0.1814   0.1853   0.3532   0.00    0.0
2022/03/25 14:13:06.500   4160721.6478    677819.8198   4770951.6011   2   5   0.3539   0.1525   0.4098   0.1806   0.1843   0.3514   0.00    0.0
2022/03/25 14:13:06.600   4160721.4321    677820.1690   4770951.7334   2   5   0.3521   0.1520   0.4077   0.1798   0.1834   0.3495   0.00    0.0
2022/03/25 14:13:06.700   4160721.1981    677820.5125   4770951.8514   2   5   0.3505   0.1515   0.4057   0.1790   0.1824   0.3477   0.00    0.0
2022/03/25 14:13:06.800   4160720.9520    677820.8571   4770951.9595   2   6   0.3479   0.1509   0.4032   0.1780   0.1812   0.3452   0.00    0.0
2022/03/25 14:13:06.900   4160720.7421    677821.1949   4770952.0924   2   6   0.3458   0.1504   0.4009   0.1770   0.1801   0.3430   0.00    0.0
2022/03/25 14:13:07.000   4160720.5958    677821.5069   4770952.4734   1   6   0.0114   0.0064   0.0134   0.0066   0.0056   0.0108   0.00    6.4
2022/03/25 14:13:07.100   4160720.3567    677821.8438   4770952.5888   1   6   0.0113   0.0065   0.0133   0.0065   0.0055   0.0106   0.00    6.5
2022/03/25 14:13:07.200   4160720.1354    677822.1831   4770952.7387   1   6   0.0113   0.0065   0.0133   0.0065   0.0055   0.0106   0.00    6.4
2022/03/25 14:13:07.300   4160719.9103    677822.5104   4770952.8705   1   6   0.0112   0.0065   0.0132   0.0064   0.0055   0.0105   0.00    6.6
2022/03/25 14:13:07.400   4160719.6793    677822.8313   4770953.0026   1   6   0.0111   0.0064   0.0132   0.0066   0.0054   0.0105   0.00    6.8
2022/03/25 14:13:07.500   4160719.4456    677823.1584   4770953.1276   1   6   0.0111   0.0065   0.0132   0.0065   0.0054   0.0105   0.00    6.8
2022/03/25 14:13:07.600   4160719.2202    677823.4747   4770953.2753   1   6   0.0112   0.0065   0.0132   0.0065   0.0054   0.0105   0.00    6.8
2022/03/25 14:13:07.700   4160718.9969    677823.7982   4770953.4101   1   6   0.0111   0.0065   0.0132   0.0064   0.0054   0.0105   0.00    6.8
2022/03/25 14:13:07.800   4160718.7719    677824.1185   4770953.5436   1   6   0.0110   0.0064   0.0132   0.0065   0.0054   0.0104   0.00    6.7
2022/03/25 14:13:07.900   4160718.5565    677824.4418   4770953.6756   1   6   0.0112   0.0063   0.0132   0.0064   0.0054   0.0104   0.00    6.8
2022/03/25 14:13:08.000   4160718.3320    677824.7565   4770953.8075   1   6   0.0109   0.0065   0.0131   0.0065   0.0054   0.0105   0.00    6.8
2022/03/25 14:13:08.100   4160718.1134    677825.0700   4770953.9496   1   6   0.0110   0.0064   0.0132   0.0064   0.0054   0.0104   0.00    6.7
2022/03/25 14:13:08.200   4160717.8930    677825.3792   4770954.0809   1   6   0.0111   0.0064   0.0131   0.0062   0.0056   0.0104   0.00    6.8
2022/03/25 14:13:08.300   4160717.6648    677825.6874   4770954.2196   1   6   0.0112   0.0065   0.0132   0.0063   0.0054   0.0103   0.00    6.9
2022/03/25 14:13:08.400   4160717.4478    677825.9958   4770954.3509   1   6   0.0110   0.0064   0.0131   0.0065   0.0054   0.0104   0.00    7.1
2022/03/25 14:13:08.500   4160717.2515    677826.3218   4770954.5017   1   6   0.0109   0.0065   0.0131   0.0065   0.0054   0.0104   0.00    7.1
2022/03/25 14:13:08.600   4160717.0289    677826.6348   4770954.6269   1   6   0.0111   0.0064   0.0131   0.0063   0.0055   0.0103   0.00    7.0
2022/03/25 14:13:08.700   4160716.8009    677826.9416   4770954.7571   1   6   0.0110   0.0065   0.0131   0.0064   0.0054   0.0104   0.00    6.9
2022/03/25 14:13:08.800   4160716.5822    677827.2553   4770954.8757   1   6   0.0111   0.0064   0.0131   0.0065   0.0054   0.0104   0.00    6.9
2022/03/25 14:13:08.900   4160716.3669    677827.5745   4770955.0218   1   6   0.0110   0.0065   0.0131   0.0065   0.0053   0.0103   0.00    6.9
2022/03/25 14:13:09.000   4160716.1371    677827.8831   4770955.1505   1   6   0.0110   0.0064   0.0131   0.0065   0.0054   0.0104   0.00   17.3
