% program   : RTKPOST ver.demo5 b34d
% inp file  : D:\Amaster\4semester\Satellitenavigation\U2\roverTest2.obs
% inp file  : D:\Amaster\4semester\Satellitenavigation\U2\baseTest2.obs
% inp file  : D:\Amaster\4semester\Satellitenavigation\U2\base.nav
% obs start : 2022/03/25 14:12:28.0 GPST (week2202 483148.0s)
% obs end   : 2022/03/25 14:16:44.8 GPST (week2202 483404.8s)
% pos mode  : Kinematic
% freqs     : L1+L2/E5b+L5
% solution  : Forward
% elev mask : 5.0 deg
% dynamics  : off
% tidecorr  : off
% ionos opt : OFF
% tropo opt : OFF
% ephemeris : Broadcast
% navi sys  : GPS GLONASS Galileo BDS SBAS
% amb res   : Fix and Hold
% amb glo   : Fix and Hold
% val thres : 4.0
% antenna1  :                       ( 0.0000  0.0000  0.0000)
% antenna2  :                       ( 0.0000  0.0000  0.0000)
% ref pos   :  4161163.2044    678675.6669   4770420.4641
%
% (x/y/z-ecef=WGS84,Q=1:fix,2:float,3:sbas,4:dgps,5:single,6:ppp,ns=# of satellites)
%  GPST                      x-ecef(m)      y-ecef(m)      z-ecef(m)   Q  ns   sdx(m)   sdy(m)   sdz(m)  sdxy(m)  sdyz(m)  sdzx(m) age(s)  ratio    vx(m/s)    vy(m/s)    vz(m/s)      sdvx     sdvy     sdvz    sdvxy    sdvyz    sdvzx
2022/03/25 14:12:28.000   4160643.4676    677712.7581   4771040.3867   2  18   1.4396   0.7990   1.5852   0.4769   0.5869   1.2546   0.00    0.0    0.00000    0.00000    0.00000   0.00000  0.00000  0.00000  0.00000  0.00000  0.00000
2022/03/25 14:12:28.100   4160643.5056    677712.7752   4771040.4129   2  18   1.0591   0.5878   1.1597   0.3608   0.4349   0.9203   0.00    0.0    0.00000    0.00000    0.00000   0.00000  0.00000  0.00000  0.00000  0.00000  0.00000
2022/03/25 14:12:28.200   4160643.5662    677712.7841   4771040.4607   2  18   0.8769   0.4867   0.9582   0.3017   0.3610   0.7611   0.00    0.0    0.00000    0.00000    0.00000   0.00000  0.00000  0.00000  0.00000  0.00000  0.00000
2022/03/25 14:12:28.300   4160643.5962    677712.7892   4771040.4842   2  18   0.7649   0.4246   0.8349   0.2645   0.3153   0.6635   0.00    0.0    0.00000    0.00000    0.00000   0.00000  0.00000  0.00000  0.00000  0.00000  0.00000
2022/03/25 14:12:28.400   4160643.5801    677712.7697   4771040.4709   2  18   0.6871   0.3814   0.7495   0.2384   0.2835   0.5958   0.00    0.0    0.00000    0.00000    0.00000   0.00000  0.00000  0.00000  0.00000  0.00000  0.00000
2022/03/25 14:12:28.500   4160643.5682    677712.7579   4771040.4606   2  18   0.6291   0.3492   0.6859   0.2187   0.2597   0.5454   0.00    0.0    0.00000    0.00000    0.00000   0.00000  0.00000  0.00000  0.00000  0.00000  0.00000
2022/03/25 14:12:28.600   4160643.5851    677712.7479   4771040.4811   2  18   0.5836   0.3240   0.6361   0.2032   0.2410   0.5059   0.00    0.0    0.00000    0.00000    0.00000   0.00000  0.00000  0.00000  0.00000  0.00000  0.00000
2022/03/25 14:12:28.700   4160643.5978    677712.7385   4771040.4940   2  18   0.5468   0.3035   0.5958   0.1906   0.2259   0.4739   0.00    0.0    0.00000    0.00000    0.00000   0.00000  0.00000  0.00000  0.00000  0.00000  0.00000
2022/03/25 14:12:28.800   4160643.6027    677712.7444   4771040.4887   2  18   0.5161   0.2865   0.5623   0.1801   0.2133   0.4473   0.00    0.0    0.00000    0.00000    0.00000   0.00000  0.00000  0.00000  0.00000  0.00000  0.00000
2022/03/25 14:12:28.900   4160643.6061    677712.7493   4771040.4862   2  18   0.4901   0.2721   0.5338   0.1712   0.2026   0.4247   0.00    0.0    0.00000    0.00000    0.00000   0.00000  0.00000  0.00000  0.00000  0.00000  0.00000
2022/03/25 14:12:29.000   4160643.6004    677712.7535   4771040.4963   2  18   0.4677   0.2596   0.5093   0.1634   0.1933   0.4052   0.00    0.0    0.00000    0.00000    0.00000   0.00000  0.00000  0.00000  0.00000  0.00000  0.00000
2022/03/25 14:12:29.100   4160643.5971    677712.7569   4771040.5045   2  18   0.4481   0.2488   0.4879   0.1566   0.1852   0.3882   0.00    0.0    0.00000    0.00000    0.00000   0.00000  0.00000  0.00000  0.00000  0.00000  0.00000
2022/03/25 14:12:29.200   4160643.5995    677712.7645   4771040.5203   2  18   0.4307   0.2391   0.4689   0.1506   0.1781   0.3731   0.00    0.0    0.00000    0.00000    0.00000   0.00000  0.00000  0.00000  0.00000  0.00000  0.00000
2022/03/25 14:12:29.300   4160643.6004    677712.7714   4771040.5368   2  18   0.4153   0.2306   0.4520   0.1453   0.1717   0.3597   0.00    0.0    0.00000    0.00000    0.00000   0.00000  0.00000  0.00000  0.00000  0.00000  0.00000
2022/03/25 14:12:29.400   4160643.6056    677712.7749   4771040.5322   2  18   0.4013   0.2228   0.4368   0.1405   0.1660   0.3476   0.00    0.0    0.00000    0.00000    0.00000   0.00000  0.00000  0.00000  0.00000  0.00000  0.00000
2022/03/25 14:12:29.500   4160643.6120    677712.7784   4771040.5277   2  18   0.3887   0.2159   0.4231   0.1361   0.1608   0.3367   0.00    0.0    0.00000    0.00000    0.00000   0.00000  0.00000  0.00000  0.00000  0.00000  0.00000
2022/03/25 14:12:29.600   4160643.6309    677712.7840   4771040.5256   2  18   0.3772   0.2094   0.4105   0.1321   0.1560   0.3267   0.00    0.0    0.00000    0.00000    0.00000   0.00000  0.00000  0.00000  0.00000  0.00000  0.00000
2022/03/25 14:12:29.700   4160643.6469    677712.7929   4771040.5181   2  18   0.3667   0.2036   0.3990   0.1284   0.1517   0.3175   0.00    0.0    0.00000    0.00000    0.00000   0.00000  0.00000  0.00000  0.00000  0.00000  0.00000
2022/03/25 14:12:29.800   4160643.6657    677712.8021   4771040.5120   2  18   0.3570   0.1982   0.3884   0.1250   0.1477   0.3091   0.00    0.0    0.00000    0.00000    0.00000   0.00000  0.00000  0.00000  0.00000  0.00000  0.00000
2022/03/25 14:12:29.900   4160643.6853    677712.8170   4771040.5038   2  18   0.3480   0.1933   0.3786   0.1220   0.1440   0.3014   0.00    0.0    0.00000    0.00000    0.00000   0.00000  0.00000  0.00000  0.00000  0.00000  0.00000
2022/03/25 14:12:30.000   4160643.5604    677712.0760   4771039.1529   1  18   0.0053   0.0030   0.0056   0.0020   0.0020   0.0049   0.00    3.4    0.00000    0.00000    0.00000   0.00000  0.00000  0.00000  0.00000  0.00000  0.00000
2022/03/25 14:12:30.100   4160643.5744    677712.0985   4771039.1376   1  18   0.0055   0.0037   0.0060   0.0033   0.0002   0.0041   0.00    3.3    0.00000    0.00000    0.00000   0.00000  0.00000  0.00000  0.00000  0.00000  0.00000
2022/03/25 14:12:30.200   4160643.7732    677712.8938   4771040.4750   2  17   0.3247   0.1807   0.3545   0.1140   0.1356   0.2813   0.00    2.8    0.00000    0.00000    0.00000   0.00000  0.00000  0.00000  0.00000  0.00000  0.00000
2022/03/25 14:12:30.300   4160643.6137    677712.1496   4771039.0900   1  17   0.0050   0.0025   0.0061   0.0031   0.0030   0.0048   0.00    3.2    0.00000    0.00000    0.00000   0.00000  0.00000  0.00000  0.00000  0.00000  0.00000
2022/03/25 14:12:30.400   4160643.6288    677712.1883   4771039.0685   1  16   0.0051   0.0034   0.0066   0.0022   0.0033   0.0043   0.00   17.7    0.00000    0.00000    0.00000   0.00000  0.00000  0.00000  0.00000  0.00000  0.00000
2022/03/25 14:12:30.500   4160643.6503    677712.2303   4771039.0417   1  16   0.0056   0.0039   0.0068   0.0022   0.0027   0.0042   0.00   18.7    0.00000    0.00000    0.00000   0.00000  0.00000  0.00000  0.00000  0.00000  0.00000
2022/03/25 14:12:30.600   4160643.6757    677712.2791   4771039.0110   1  16   0.0055   0.0039   0.0066   0.0031   0.0024   0.0048   0.00   20.0    0.00000    0.00000    0.00000   0.00000  0.00000  0.00000  0.00000  0.00000  0.00000
2022/03/25 14:12:30.700   4160643.7060    677712.3313   4771038.9663   1  17   0.0050   0.0022   0.0062   0.0035   0.0027   0.0047   0.00    4.5    0.00000    0.00000    0.00000   0.00000  0.00000  0.00000  0.00000  0.00000  0.00000
2022/03/25 14:12:30.800   4160643.7384    677712.3931   4771038.9244   1  17   0.0054   0.0043   0.0064   0.0026   0.0021   0.0050   0.00    4.3    0.00000    0.00000    0.00000   0.00000  0.00000  0.00000  0.00000  0.00000  0.00000
2022/03/25 14:12:30.900   4160643.7751    677712.4694   4771038.8901   1  17   0.0051   0.0032   0.0062   0.0017   0.0034   0.0048   0.00    5.7    0.00000    0.00000    0.00000   0.00000  0.00000  0.00000  0.00000  0.00000  0.00000
2022/03/25 14:12:31.000   4160643.8127    677712.5565   4771038.8536   1  17   0.0055   0.0035   0.0063   0.0018   0.0029   0.0049   0.00   12.8    0.00000    0.00000    0.00000   0.00000  0.00000  0.00000  0.00000  0.00000  0.00000
2022/03/25 14:12:31.100   4160643.8476    677712.6473   4771038.7957   1  17   0.0044   0.0023   0.0068   0.0017   0.0032   0.0045   0.00   23.5    0.00000    0.00000    0.00000   0.00000  0.00000  0.00000  0.00000  0.00000  0.00000
2022/03/25 14:12:31.200   4160643.8977    677712.7455   4771038.7351   1  17   0.0054   0.0024   0.0065   0.0015   0.0032   0.0047   0.00   24.3    0.00000    0.00000    0.00000   0.00000  0.00000  0.00000  0.00000  0.00000  0.00000
2022/03/25 14:12:31.300   4160643.9465    677712.8625   4771038.6866   1  17   0.0055   0.0029   0.0066  -0.0014   0.0036   0.0046   0.00   21.0    0.00000    0.00000    0.00000   0.00000  0.00000  0.00000  0.00000  0.00000  0.00000
2022/03/25 14:12:31.400   4160643.9900    677712.9920   4771038.6429   1  17   0.0058   0.0029   0.0064  -0.0015   0.0031   0.0046   0.00   13.1    0.00000    0.00000    0.00000   0.00000  0.00000  0.00000  0.00000  0.00000  0.00000
2022/03/25 14:12:31.500   4160644.0460    677713.1097   4771038.5674   1  17   0.0053   0.0033   0.0068   0.0008   0.0032   0.0046   0.00    8.0    0.00000    0.00000    0.00000   0.00000  0.00000  0.00000  0.00000  0.00000  0.00000
2022/03/25 14:12:31.600   4160644.1071    677713.2199   4771038.4573   1  15   0.0054   0.0038   0.0071   0.0014   0.0038   0.0042   0.00   29.5    0.00000    0.00000    0.00000   0.00000  0.00000  0.00000  0.00000  0.00000  0.00000
2022/03/25 14:12:31.700   4160644.1587    677713.3706   4771038.3765   1  15   0.0060   0.0037   0.0072   0.0029   0.0037   0.0044   0.00   31.1    0.00000    0.00000    0.00000   0.00000  0.00000  0.00000  0.00000  0.00000  0.00000
2022/03/25 14:12:31.800   4160644.2197    677713.5500   4771038.3178   1  16   0.0058   0.0033   0.0066   0.0029   0.0033   0.0048   0.00   31.0    0.00000    0.00000    0.00000   0.00000  0.00000  0.00000  0.00000  0.00000  0.00000
2022/03/25 14:12:31.900   4160644.2735    677713.7305   4771038.2249   1  16   0.0053   0.0034   0.0067   0.0024   0.0033   0.0044   0.00   31.6    0.00000    0.00000    0.00000   0.00000  0.00000  0.00000  0.00000  0.00000  0.00000
2022/03/25 14:12:32.000   4160644.3525    677713.9312   4771038.1445   1  16   0.0057   0.0037   0.0069   0.0020   0.0027   0.0045   0.00   32.9    0.00000    0.00000    0.00000   0.00000  0.00000  0.00000  0.00000  0.00000  0.00000
2022/03/25 14:12:32.100   4160644.4140    677714.1403   4771038.0334   1  16   0.0054   0.0040   0.0065   0.0034   0.0031   0.0046   0.00   32.8    0.00000    0.00000    0.00000   0.00000  0.00000  0.00000  0.00000  0.00000  0.00000
2022/03/25 14:12:32.200   4160644.4772    677714.3485   4771037.8987   1  15   0.0051   0.0035   0.0071   0.0020   0.0038   0.0048   0.00   33.0    0.00000    0.00000    0.00000   0.00000  0.00000  0.00000  0.00000  0.00000  0.00000
2022/03/25 14:12:32.300   4160644.5528    677714.5859   4771037.8014   1  15   0.0052   0.0035   0.0068   0.0019   0.0037   0.0049   0.00   13.4    0.00000    0.00000    0.00000   0.00000  0.00000  0.00000  0.00000  0.00000  0.00000
2022/03/25 14:12:32.400   4160644.6240    677714.8356   4771037.6995   1  15   0.0055   0.0031   0.0070   0.0019   0.0039   0.0047   0.00   14.1    0.00000    0.00000    0.00000   0.00000  0.00000  0.00000  0.00000  0.00000  0.00000
2022/03/25 14:12:32.500   4160644.6956    677715.0976   4771037.5872   1  15   0.0052   0.0020   0.0072   0.0023   0.0037   0.0048   0.00   14.7    0.00000    0.00000    0.00000   0.00000  0.00000  0.00000  0.00000  0.00000  0.00000
2022/03/25 14:12:32.600   4160644.7821    677715.3618   4771037.4617   1  15   0.0055   0.0048   0.0070   0.0021   0.0031   0.0051   0.00   15.6    0.00000    0.00000    0.00000   0.00000  0.00000  0.00000  0.00000  0.00000  0.00000
2022/03/25 14:12:32.700   4160644.8717    677715.6366   4771037.3371   1  15   0.0054   0.0029   0.0072   0.0019   0.0038   0.0045   0.00   16.5    0.00000    0.00000    0.00000   0.00000  0.00000  0.00000  0.00000  0.00000  0.00000
2022/03/25 14:12:32.800   4160644.9573    677715.9238   4771037.2094   1  15   0.0055   0.0034   0.0071   0.0018   0.0040   0.0047   0.00   17.2    0.00000    0.00000    0.00000   0.00000  0.00000  0.00000  0.00000  0.00000  0.00000
2022/03/25 14:12:32.900   4160645.0237    677716.2255   4771037.0659   1  15   0.0052   0.0038   0.0069   0.0018   0.0037   0.0048   0.00   17.1    0.00000    0.00000    0.00000   0.00000  0.00000  0.00000  0.00000  0.00000  0.00000
2022/03/25 14:12:33.000   4160645.1263    677716.5184   4771036.9157   1  15   0.0058   0.0040   0.0071   0.0021   0.0036   0.0046   0.00   17.5    0.00000    0.00000    0.00000   0.00000  0.00000  0.00000  0.00000  0.00000  0.00000
2022/03/25 14:12:33.100   4160645.2412    677716.8324   4771036.7896   1  15   0.0054   0.0037   0.0071   0.0023   0.0038   0.0044   0.00   18.3    0.00000    0.00000    0.00000   0.00000  0.00000  0.00000  0.00000  0.00000  0.00000
2022/03/25 14:12:33.200   4160645.3538    677717.1534   4771036.6400   1  15   0.0052   0.0027   0.0072  -0.0009   0.0039   0.0044   0.00   18.7    0.00000    0.00000    0.00000   0.00000  0.00000  0.00000  0.00000  0.00000  0.00000
2022/03/25 14:12:33.300   4160645.4539    677717.4863   4771036.4826   1  15   0.0056   0.0040   0.0070   0.0031   0.0038   0.0046   0.00   19.3    0.00000    0.00000    0.00000   0.00000  0.00000  0.00000  0.00000  0.00000  0.00000
2022/03/25 14:12:33.400   4160645.5829    677717.8153   4771036.3157   1  16   0.0053   0.0046   0.0070   0.0029   0.0034   0.0048   0.00   20.0    0.00000    0.00000    0.00000   0.00000  0.00000  0.00000  0.00000  0.00000  0.00000
2022/03/25 14:12:33.500   4160645.7150    677718.1470   4771036.1411   1  16   0.0052   0.0039   0.0068   0.0018   0.0030   0.0049   0.00   20.3    0.00000    0.00000    0.00000   0.00000  0.00000  0.00000  0.00000  0.00000  0.00000
2022/03/25 14:12:33.600   4160645.8538    677718.4939   4771035.9627   1  16   0.0053   0.0034   0.0064   0.0009   0.0035   0.0052   0.00    6.1    0.00000    0.00000    0.00000   0.00000  0.00000  0.00000  0.00000  0.00000  0.00000
2022/03/25 14:12:33.700   4160645.9923    677718.8511   4771035.7796   1  16   0.0057   0.0027   0.0064   0.0008   0.0035   0.0048   0.00    7.2    0.00000    0.00000    0.00000   0.00000  0.00000  0.00000  0.00000  0.00000  0.00000
2022/03/25 14:12:33.800   4160646.1548    677719.2051   4771035.5962   1  15   0.0054   0.0039   0.0068   0.0023   0.0034   0.0048   0.00    8.0    0.00000    0.00000    0.00000   0.00000  0.00000  0.00000  0.00000  0.00000  0.00000
2022/03/25 14:12:33.900   4160646.2953    677719.5757   4771035.3890   1  15   0.0052   0.0043   0.0066   0.0023   0.0030   0.0046   0.00    8.9    0.00000    0.00000    0.00000   0.00000  0.00000  0.00000  0.00000  0.00000  0.00000
2022/03/25 14:12:34.000   4160646.4438    677719.9530   4771035.1905   1  16   0.0058   0.0043   0.0066   0.0020   0.0034   0.0044   0.00   10.4    0.00000    0.00000    0.00000   0.00000  0.00000  0.00000  0.00000  0.00000  0.00000
2022/03/25 14:12:34.100   4160646.6015    677720.3205   4771034.9924   1  16   0.0060   0.0040   0.0067   0.0016   0.0034   0.0040   0.00   12.3    0.00000    0.00000    0.00000   0.00000  0.00000  0.00000  0.00000  0.00000  0.00000
2022/03/25 14:12:34.200   4160646.7779    677720.6905   4771034.7749   1  15   0.0059   0.0033   0.0069  -0.0031   0.0036   0.0041   0.00   13.8    0.00000    0.00000    0.00000   0.00000  0.00000  0.00000  0.00000  0.00000  0.00000
2022/03/25 14:12:34.300   4160646.9548    677721.0568   4771034.5548   1  15   0.0063   0.0043   0.0069   0.0007   0.0032   0.0043   0.00   15.5    0.00000    0.00000    0.00000   0.00000  0.00000  0.00000  0.00000  0.00000  0.00000
2022/03/25 14:12:34.400   4160647.1348    677721.4269   4771034.3423   1  14   0.0055   0.0022   0.0060  -0.0019   0.0034   0.0047   0.00    4.2    0.00000    0.00000    0.00000   0.00000  0.00000  0.00000  0.00000  0.00000  0.00000
2022/03/25 14:12:34.500   4160647.3079    677721.7920   4771034.1094   1  14   0.0060   0.0029   0.0069  -0.0009   0.0040   0.0047   0.00   11.1    0.00000    0.00000    0.00000   0.00000  0.00000  0.00000  0.00000  0.00000  0.00000
2022/03/25 14:12:34.600   4160647.4932    677722.1561   4771033.8854   1  14   0.0061   0.0041   0.0064   0.0015   0.0027   0.0046   0.00   15.8    0.00000    0.00000    0.00000   0.00000  0.00000  0.00000  0.00000  0.00000  0.00000
2022/03/25 14:12:34.700   4160647.6859    677722.5161   4771033.6633   1  14   0.0064   0.0038   0.0064   0.0007   0.0030   0.0042   0.00    7.2    0.00000    0.00000    0.00000   0.00000  0.00000  0.00000  0.00000  0.00000  0.00000
2022/03/25 14:12:34.800   4160647.8826    677722.8692   4771033.4420   1  14   0.0058   0.0041   0.0063   0.0014   0.0021   0.0046   0.00    9.3    0.00000    0.00000    0.00000   0.00000  0.00000  0.00000  0.00000  0.00000  0.00000
2022/03/25 14:12:34.900   4160648.0760    677723.2258   4771033.2157   1  14   0.0062   0.0031   0.0062   0.0006   0.0029   0.0045   0.00   12.0    0.00000    0.00000    0.00000   0.00000  0.00000  0.00000  0.00000  0.00000  0.00000
2022/03/25 14:12:35.000   4160648.2694    677723.5708   4771032.9669   1  14   0.0061   0.0046   0.0061   0.0028   0.0026   0.0048   0.00   20.4    0.00000    0.00000    0.00000   0.00000  0.00000  0.00000  0.00000  0.00000  0.00000
2022/03/25 14:12:35.100   4160648.4764    677723.9246   4771032.7411   1  14   0.0060   0.0035   0.0064   0.0015   0.0032   0.0046   0.00   26.3    0.00000    0.00000    0.00000   0.00000  0.00000  0.00000  0.00000  0.00000  0.00000
2022/03/25 14:12:35.200   4160648.6924    677724.2610   4771032.4837   1  14   0.0054   0.0038   0.0070   0.0018   0.0032   0.0047   0.00    5.7    0.00000    0.00000    0.00000   0.00000  0.00000  0.00000  0.00000  0.00000  0.00000
2022/03/25 14:12:35.300   4160648.9041    677724.5991   4771032.2345   1  14   0.0054   0.0028   0.0067  -0.0015   0.0040   0.0045   0.00    5.0    0.00000    0.00000    0.00000   0.00000  0.00000  0.00000  0.00000  0.00000  0.00000
2022/03/25 14:12:35.400   4160649.1180    677724.9532   4771032.0095   1  14   0.0063   0.0040   0.0069   0.0015   0.0035   0.0046   0.00    3.3    0.00000    0.00000    0.00000   0.00000  0.00000  0.00000  0.00000  0.00000  0.00000
2022/03/25 14:12:35.500   4160649.3084    677725.3008   4771031.7638   1  14   0.0064   0.0035   0.0068  -0.0007   0.0034   0.0051   0.00   18.6    0.00000    0.00000    0.00000   0.00000  0.00000  0.00000  0.00000  0.00000  0.00000
2022/03/25 14:12:35.600   4160649.5343    677725.6125   4771031.4787   1  13   0.0064   0.0041   0.0070   0.0012   0.0031   0.0044   0.00    3.1    0.00000    0.00000    0.00000   0.00000  0.00000  0.00000  0.00000  0.00000  0.00000
2022/03/25 14:12:35.700   4160649.7476    677725.9695   4771031.2457   1  13   0.0060   0.0032   0.0069  -0.0015   0.0039   0.0046   0.00    4.9    0.00000    0.00000    0.00000   0.00000  0.00000  0.00000  0.00000  0.00000  0.00000
2022/03/25 14:12:35.800   4160649.9731    677726.2981   4771030.9912   1  13   0.0062   0.0037   0.0073  -0.0015   0.0041   0.0043   0.00   29.1    0.00000    0.00000    0.00000   0.00000  0.00000  0.00000  0.00000  0.00000  0.00000
2022/03/25 14:12:35.900   4160650.1844    677726.6467   4771030.7565   1  13   0.0059   0.0039   0.0068   0.0005   0.0035   0.0048   0.00    3.1    0.00000    0.00000    0.00000   0.00000  0.00000  0.00000  0.00000  0.00000  0.00000
2022/03/25 14:12:36.000   4160650.3964    677726.9687   4771030.4832   1  13   0.0063   0.0036   0.0072  -0.0018   0.0039   0.0047   0.00   28.3    0.00000    0.00000    0.00000   0.00000  0.00000  0.00000  0.00000  0.00000  0.00000
2022/03/25 14:12:36.100   4160650.6300    677727.3110   4771030.2338   1  13   0.0063   0.0042   0.0069   0.0018   0.0032   0.0044   0.00    5.2    0.00000    0.00000    0.00000   0.00000  0.00000  0.00000  0.00000  0.00000  0.00000
2022/03/25 14:12:36.200   4160650.8406    677727.6579   4771029.9846   1  13   0.0063   0.0041   0.0070   0.0012   0.0033   0.0044   0.00    3.7    0.00000    0.00000    0.00000   0.00000  0.00000  0.00000  0.00000  0.00000  0.00000
2022/03/25 14:12:36.300   4160651.0425    677727.9683   4771029.6890   1  13   0.0060   0.0046   0.0074  -0.0015   0.0040   0.0045   0.00   25.8    0.00000    0.00000    0.00000   0.00000  0.00000  0.00000  0.00000  0.00000  0.00000
2022/03/25 14:12:36.400   4160651.2240    677728.2781   4771029.3937   1  13   0.0061   0.0038   0.0067   0.0011   0.0037   0.0043   0.00    4.1    0.00000    0.00000    0.00000   0.00000  0.00000  0.00000  0.00000  0.00000  0.00000
2022/03/25 14:12:36.500   4160651.5129    677728.6649   4771029.2141   1  13   0.0069   0.0049   0.0080   0.0024   0.0048   0.0052   0.00   36.2    0.00000    0.00000    0.00000   0.00000  0.00000  0.00000  0.00000  0.00000  0.00000
2022/03/25 14:12:36.600   4160651.7397    677729.0105   4771028.9610   1  12   0.0067   0.0043   0.0079   0.0019   0.0050   0.0051   0.00   37.4    0.00000    0.00000    0.00000   0.00000  0.00000  0.00000  0.00000  0.00000  0.00000
2022/03/25 14:12:36.700   4160651.9605    677729.3290   4771028.6843   1  13   0.0066   0.0049   0.0082   0.0023   0.0049   0.0051   0.00   37.8    0.00000    0.00000    0.00000   0.00000  0.00000  0.00000  0.00000  0.00000  0.00000
2022/03/25 14:12:36.800   4160652.1996    677729.6646   4771028.4334   1  13   0.0065   0.0046   0.0076   0.0020   0.0041   0.0048   0.00   38.2    0.00000    0.00000    0.00000   0.00000  0.00000  0.00000  0.00000  0.00000  0.00000
2022/03/25 14:12:36.900   4160652.4065    677730.0073   4771028.1582   1  13   0.0065   0.0045   0.0075  -0.0018   0.0044   0.0050   0.00   39.4    0.00000    0.00000    0.00000   0.00000  0.00000  0.00000  0.00000  0.00000  0.00000
2022/03/25 14:12:37.000   4160652.6327    677730.3630   4771027.9200   1  12   0.0069   0.0046   0.0079   0.0018   0.0050   0.0051   0.00   40.1    0.00000    0.00000    0.00000   0.00000  0.00000  0.00000  0.00000  0.00000  0.00000
2022/03/25 14:12:37.100   4160652.8640    677730.7009   4771027.6589   1  12   0.0066   0.0049   0.0080   0.0025   0.0046   0.0051   0.00   40.7    0.00000    0.00000    0.00000   0.00000  0.00000  0.00000  0.00000  0.00000  0.00000
2022/03/25 14:12:37.200   4160653.0977    677731.0437   4771027.4048   1  10   0.0069   0.0046   0.0083   0.0021   0.0048   0.0053   0.00   41.1    0.00000    0.00000    0.00000   0.00000  0.00000  0.00000  0.00000  0.00000  0.00000
2022/03/25 14:12:37.300   4160653.3193    677731.3819   4771027.1444   1  10   0.0068   0.0044   0.0080   0.0019   0.0049   0.0054   0.00   41.0    0.00000    0.00000    0.00000   0.00000  0.00000  0.00000  0.00000  0.00000  0.00000
2022/03/25 14:12:37.400   4160653.5582    677731.7231   4771026.8909   1  12   0.0066   0.0047   0.0080   0.0028   0.0046   0.0052   0.00   41.6    0.00000    0.00000    0.00000   0.00000  0.00000  0.00000  0.00000  0.00000  0.00000
2022/03/25 14:12:37.500   4160653.7822    677732.0719   4771026.6308   1  12   0.0069   0.0050   0.0080   0.0027   0.0046   0.0050   0.00   42.3    0.00000    0.00000    0.00000   0.00000  0.00000  0.00000  0.00000  0.00000  0.00000
2022/03/25 14:12:37.600   4160654.0100    677732.4285   4771026.3670   1  14   0.0064   0.0043   0.0081   0.0019   0.0050   0.0050   0.00   43.1    0.00000    0.00000    0.00000   0.00000  0.00000  0.00000  0.00000  0.00000  0.00000
2022/03/25 14:12:37.700   4160654.2366    677732.7644   4771026.1021   1  14   0.0066   0.0045   0.0073   0.0021   0.0042   0.0052   0.00   43.9    0.00000    0.00000    0.00000   0.00000  0.00000  0.00000  0.00000  0.00000  0.00000
2022/03/25 14:12:37.800   4160654.4709    677733.1169   4771025.8385   1  14   0.0065   0.0034   0.0068   0.0018   0.0042   0.0056   0.00   10.4    0.00000    0.00000    0.00000   0.00000  0.00000  0.00000  0.00000  0.00000  0.00000
2022/03/25 14:12:37.900   4160654.7087    677733.4692   4771025.5867   1  14   0.0066   0.0037   0.0068   0.0021   0.0042   0.0054   0.00   14.0    0.00000    0.00000    0.00000   0.00000  0.00000  0.00000  0.00000  0.00000  0.00000
2022/03/25 14:12:38.000   4160654.9365    677733.8134   4771025.3243   1  14   0.0067   0.0041   0.0068   0.0028   0.0037   0.0051   0.00   12.1    0.00000    0.00000    0.00000   0.00000  0.00000  0.00000  0.00000  0.00000  0.00000
2022/03/25 14:12:38.100   4160655.1541    677734.1543   4771025.0474   1  14   0.0062   0.0039   0.0068   0.0028   0.0035   0.0056   0.00   14.4    0.00000    0.00000    0.00000   0.00000  0.00000  0.00000  0.00000  0.00000  0.00000
2022/03/25 14:12:38.200   4160655.4108    677734.5204   4771024.7903   1  13   0.0071   0.0043   0.0069   0.0034   0.0038   0.0054   0.00   18.4    0.00000    0.00000    0.00000   0.00000  0.00000  0.00000  0.00000  0.00000  0.00000
2022/03/25 14:12:38.300   4160655.6474    677734.8696   4771024.5331   1  13   0.0071   0.0047   0.0070   0.0037   0.0025   0.0057   0.00   22.1    0.00000    0.00000    0.00000   0.00000  0.00000  0.00000  0.00000  0.00000  0.00000
2022/03/25 14:12:38.400   4160655.8519    677735.2024   4771024.2470   1  14   0.0095   0.0053   0.0081   0.0056   0.0056   0.0075   0.00   32.4    0.00000    0.00000    0.00000   0.00000  0.00000  0.00000  0.00000  0.00000  0.00000
2022/03/25 14:12:38.500   4160656.0928    677735.5587   4771023.9852   1  14   0.0095   0.0052   0.0081   0.0055   0.0057   0.0076   0.00   33.7    0.00000    0.00000    0.00000   0.00000  0.00000  0.00000  0.00000  0.00000  0.00000
2022/03/25 14:12:38.600   4160656.3429    677735.9259   4771023.7412   1  14   0.0084   0.0047   0.0065   0.0040   0.0041   0.0064   0.00    4.1    0.00000    0.00000    0.00000   0.00000  0.00000  0.00000  0.00000  0.00000  0.00000
2022/03/25 14:12:38.700   4160656.5688    677736.2668   4771023.4699   1  13   0.0084   0.0045   0.0070   0.0044   0.0045   0.0064   0.00    6.1    0.00000    0.00000    0.00000   0.00000  0.00000  0.00000  0.00000  0.00000  0.00000
2022/03/25 14:12:38.800   4160656.7981    677736.5997   4771023.1868   1  14   0.0087   0.0056   0.0086   0.0053   0.0060   0.0075   0.00   64.2    0.00000    0.00000    0.00000   0.00000  0.00000  0.00000  0.00000  0.00000  0.00000
2022/03/25 14:12:38.900   4160657.0235    677736.9458   4771022.9103   1  14   0.0082   0.0051   0.0081   0.0046   0.0055   0.0069   0.00    4.6    0.00000    0.00000    0.00000   0.00000  0.00000  0.00000  0.00000  0.00000  0.00000
2022/03/25 14:12:39.000   4160657.2685    677737.3076   4771022.6565   1  14   0.0084   0.0050   0.0075   0.0043   0.0046   0.0067   0.00    5.2    0.00000    0.00000    0.00000   0.00000  0.00000  0.00000  0.00000  0.00000  0.00000
2022/03/25 14:12:39.100   4160657.4970    677737.6592   4771022.3794   1  14   0.0083   0.0051   0.0075   0.0048   0.0040   0.0068   0.00    6.3    0.00000    0.00000    0.00000   0.00000  0.00000  0.00000  0.00000  0.00000  0.00000
2022/03/25 14:12:39.200   4160657.7383    677738.0020   4771022.1073   1  14   0.0086   0.0048   0.0076   0.0045   0.0045   0.0063   0.00    7.9    0.00000    0.00000    0.00000   0.00000  0.00000  0.00000  0.00000  0.00000  0.00000
2022/03/25 14:12:39.300   4160657.9725    677738.3583   4771021.8293   1  14   0.0083   0.0048   0.0072   0.0041   0.0047   0.0070   0.00    9.1    0.00000    0.00000    0.00000   0.00000  0.00000  0.00000  0.00000  0.00000  0.00000
2022/03/25 14:12:39.400   4160658.2147    677738.7185   4771021.5750   1  15   0.0085   0.0047   0.0073   0.0045   0.0043   0.0068   0.00    9.6    0.00000    0.00000    0.00000   0.00000  0.00000  0.00000  0.00000  0.00000  0.00000
2022/03/25 14:12:39.500   4160658.4541    677739.0777   4771021.3088   1  15   0.0073   0.0039   0.0074   0.0039   0.0036   0.0059   0.00    9.4    0.00000    0.00000    0.00000   0.00000  0.00000  0.00000  0.00000  0.00000  0.00000
2022/03/25 14:12:39.600   4160658.7000    677739.4377   4771021.0600   1  15   0.0068   0.0026   0.0068   0.0027   0.0034   0.0050   0.00    6.0    0.00000    0.00000    0.00000   0.00000  0.00000  0.00000  0.00000  0.00000  0.00000
2022/03/25 14:12:39.700   4160658.9450    677739.7996   4771020.7983   1  15   0.0065   0.0038   0.0069   0.0027   0.0039   0.0053   0.00    4.2    0.00000    0.00000    0.00000   0.00000  0.00000  0.00000  0.00000  0.00000  0.00000
2022/03/25 14:12:39.800   4160659.1763    677740.1190   4771020.4732   1  15   0.0062   0.0037   0.0068   0.0021   0.0039   0.0052   0.00    4.1    0.00000    0.00000    0.00000   0.00000  0.00000  0.00000  0.00000  0.00000  0.00000
2022/03/25 14:12:39.900   4160659.4099    677740.4828   4771020.2150   1  15   0.0062   0.0044   0.0072   0.0017   0.0037   0.0055   0.00    7.6    0.00000    0.00000    0.00000   0.00000  0.00000  0.00000  0.00000  0.00000  0.00000
2022/03/25 14:12:40.000   4160659.6572    677740.8278   4771019.9247   1  14   0.0057   0.0040   0.0071   0.0019   0.0039   0.0050   0.00    4.3    0.00000    0.00000    0.00000   0.00000  0.00000  0.00000  0.00000  0.00000  0.00000
2022/03/25 14:12:40.100   4160659.8981    677741.1899   4771019.6587   2  14   0.0074   0.0051   0.0090   0.0014   0.0054   0.0062   0.00    1.3    0.00000    0.00000    0.00000   0.00000  0.00000  0.00000  0.00000  0.00000  0.00000
2022/03/25 14:12:40.200   4160660.1282    677741.5842   4771019.4535   1  15   0.0062   0.0038   0.0069   0.0026   0.0032   0.0049   0.00    7.5    0.00000    0.00000    0.00000   0.00000  0.00000  0.00000  0.00000  0.00000  0.00000
2022/03/25 14:12:40.300   4160660.3764    677741.8710   4771019.0917   1  15   0.0061   0.0045   0.0075   0.0019   0.0044   0.0050   0.00   16.8    0.00000    0.00000    0.00000   0.00000  0.00000  0.00000  0.00000  0.00000  0.00000
2022/03/25 14:12:40.400   4160660.6213    677742.2274   4771018.8295   1  14   0.0061   0.0042   0.0077   0.0005   0.0048   0.0052   0.00   17.5    0.00000    0.00000    0.00000   0.00000  0.00000  0.00000  0.00000  0.00000  0.00000
2022/03/25 14:12:40.500   4160660.8588    677742.5689   4771018.5551   1  14   0.0058   0.0043   0.0078   0.0025   0.0042   0.0051   0.00   17.7    0.00000    0.00000    0.00000   0.00000  0.00000  0.00000  0.00000  0.00000  0.00000
2022/03/25 14:12:40.600   4160661.0954    677742.9087   4771018.2951   1  15   0.0059   0.0041   0.0078   0.0016   0.0045   0.0050   0.00   18.4    0.00000    0.00000    0.00000   0.00000  0.00000  0.00000  0.00000  0.00000  0.00000
2022/03/25 14:12:40.700   4160661.3312    677743.2468   4771018.0217   1  15   0.0058   0.0045   0.0076   0.0017   0.0042   0.0047   0.00   19.4    0.00000    0.00000    0.00000   0.00000  0.00000  0.00000  0.00000  0.00000  0.00000
2022/03/25 14:12:40.800   4160661.5814    677743.5951   4771017.7582   1  15   0.0056   0.0043   0.0072   0.0015   0.0040   0.0046   0.00    8.5    0.00000    0.00000    0.00000   0.00000  0.00000  0.00000  0.00000  0.00000  0.00000
2022/03/25 14:12:40.900   4160661.8270    677743.9421   4771017.4700   1  15   0.0059   0.0034   0.0072  -0.0006   0.0044   0.0046   0.00   11.6    0.00000    0.00000    0.00000   0.00000  0.00000  0.00000  0.00000  0.00000  0.00000
2022/03/25 14:12:41.000   4160662.0868    677744.2920   4771017.1890   1  15   0.0062   0.0046   0.0073   0.0026   0.0037   0.0048   0.00   14.2    0.00000    0.00000    0.00000   0.00000  0.00000  0.00000  0.00000  0.00000  0.00000
2022/03/25 14:12:41.100   4160662.3416    677744.6395   4771016.9123   1  15   0.0056   0.0037   0.0072  -0.0003   0.0042   0.0049   0.00   15.7    0.00000    0.00000    0.00000   0.00000  0.00000  0.00000  0.00000  0.00000  0.00000
2022/03/25 14:12:41.200   4160662.6022    677744.9866   4771016.6328   1  15   0.0056   0.0035   0.0072   0.0024   0.0040   0.0047   0.00    7.4    0.00000    0.00000    0.00000   0.00000  0.00000  0.00000  0.00000  0.00000  0.00000
2022/03/25 14:12:41.300   4160662.8558    677745.3347   4771016.3600   1  15   0.0053   0.0039   0.0073   0.0019   0.0040   0.0050   0.00    4.9    0.00000    0.00000    0.00000   0.00000  0.00000  0.00000  0.00000  0.00000  0.00000
2022/03/25 14:12:41.400   4160663.1165    677745.6750   4771016.0695   1  16   0.0055   0.0038   0.0074   0.0012   0.0037   0.0046   0.00    9.0    0.00000    0.00000    0.00000   0.00000  0.00000  0.00000  0.00000  0.00000  0.00000
2022/03/25 14:12:41.500   4160663.3775    677746.0080   4771015.7758   1  16   0.0052   0.0033   0.0068   0.0016   0.0036   0.0054   0.00   12.8    0.00000    0.00000    0.00000   0.00000  0.00000  0.00000  0.00000  0.00000  0.00000
2022/03/25 14:12:41.600   4160663.6536    677746.3604   4771015.4875   1  17   0.0058   0.0038   0.0071   0.0014   0.0036   0.0047   0.00   15.8    0.00000    0.00000    0.00000   0.00000  0.00000  0.00000  0.00000  0.00000  0.00000
2022/03/25 14:12:41.700   4160663.9294    677746.7179   4771015.1844   1  17   0.0052   0.0013   0.0069  -0.0001   0.0035   0.0047   0.00   17.2    0.00000    0.00000    0.00000   0.00000  0.00000  0.00000  0.00000  0.00000  0.00000
2022/03/25 14:12:41.800   4160664.2130    677747.0749   4771014.8885   1  18   0.0057   0.0038   0.0065   0.0032   0.0028   0.0049   0.00   18.4    0.00000    0.00000    0.00000   0.00000  0.00000  0.00000  0.00000  0.00000  0.00000
2022/03/25 14:12:41.900   4160664.5076    677747.4395   4771014.5843   1  18   0.0056   0.0033   0.0066   0.0021   0.0035   0.0045   0.00   17.2    0.00000    0.00000    0.00000   0.00000  0.00000  0.00000  0.00000  0.00000  0.00000
2022/03/25 14:12:42.000   4160664.8065    677747.8024   4771014.2904   1  18   0.0060   0.0037   0.0064   0.0025   0.0028   0.0049   0.00   13.6    0.00000    0.00000    0.00000   0.00000  0.00000  0.00000  0.00000  0.00000  0.00000
2022/03/25 14:12:42.100   4160665.0985    677748.1732   4771013.9705   1  18   0.0053   0.0039   0.0067   0.0029   0.0021   0.0045   0.00   10.5    0.00000    0.00000    0.00000   0.00000  0.00000  0.00000  0.00000  0.00000  0.00000
2022/03/25 14:12:42.200   4160665.3848    677748.5360   4771013.6338   1  16   0.0060   0.0012   0.0067   0.0038   0.0033   0.0052   0.00    5.4    0.00000    0.00000    0.00000   0.00000  0.00000  0.00000  0.00000  0.00000  0.00000
2022/03/25 14:12:42.300   4160665.6900    677748.9116   4771013.3120   1  16   0.0059   0.0033   0.0069   0.0025   0.0040   0.0056   0.00    7.9    0.00000    0.00000    0.00000   0.00000  0.00000  0.00000  0.00000  0.00000  0.00000
2022/03/25 14:12:42.400   4160665.9991    677749.2880   4771012.9898   1  16   0.0055   0.0033   0.0068   0.0019   0.0038   0.0050   0.00   11.1    0.00000    0.00000    0.00000   0.00000  0.00000  0.00000  0.00000  0.00000  0.00000
2022/03/25 14:12:42.500   4160666.2920    677749.6570   4771012.6676   1  16   0.0058   0.0035   0.0069   0.0028   0.0037   0.0051   0.00   13.6    0.00000    0.00000    0.00000   0.00000  0.00000  0.00000  0.00000  0.00000  0.00000
2022/03/25 14:12:42.600   4160666.5859    677750.0217   4771012.3379   1  16   0.0055   0.0020   0.0067   0.0023   0.0035   0.0052   0.00   17.4    0.00000    0.00000    0.00000   0.00000  0.00000  0.00000  0.00000  0.00000  0.00000
2022/03/25 14:12:42.700   4160666.8724    677750.3837   4771011.9855   1  16   0.0055   0.0022   0.0066   0.0022   0.0039   0.0050   0.00   22.4    0.00000    0.00000    0.00000   0.00000  0.00000  0.00000  0.00000  0.00000  0.00000
2022/03/25 14:12:42.800   4160667.1870    677750.7597   4771011.6460   1  16   0.0058   0.0035   0.0070   0.0026   0.0040   0.0046   0.00   23.5    0.00000    0.00000    0.00000   0.00000  0.00000  0.00000  0.00000  0.00000  0.00000
2022/03/25 14:12:42.900   4160667.5049    677751.1403   4771011.2909   1  16   0.0056   0.0032   0.0073   0.0036   0.0032   0.0048   0.00   26.6    0.00000    0.00000    0.00000   0.00000  0.00000  0.00000  0.00000  0.00000  0.00000
2022/03/25 14:12:43.000   4160667.8297    677751.5319   4771010.9562   1  15   0.0059   0.0032   0.0070   0.0027   0.0039   0.0048   0.00   29.2    0.00000    0.00000    0.00000   0.00000  0.00000  0.00000  0.00000  0.00000  0.00000
2022/03/25 14:12:43.100   4160668.1575    677751.9281   4771010.6169   1  15   0.0058   0.0030   0.0071   0.0022   0.0043   0.0051   0.00   30.3    0.00000    0.00000    0.00000   0.00000  0.00000  0.00000  0.00000  0.00000  0.00000
2022/03/25 14:12:43.200   4160668.4847    677752.3181   4771010.2677   1  14   0.0057   0.0040   0.0070   0.0022   0.0036   0.0051   0.00   31.6    0.00000    0.00000    0.00000   0.00000  0.00000  0.00000  0.00000  0.00000  0.00000
2022/03/25 14:12:43.300   4160668.8161    677752.6737   4771009.8944   1  14   0.0063   0.0044   0.0071   0.0024   0.0031   0.0051   0.00   31.7    0.00000    0.00000    0.00000   0.00000  0.00000  0.00000  0.00000  0.00000  0.00000
2022/03/25 14:12:43.400   4160669.1511    677753.0424   4771009.5296   1  14   0.0062   0.0042   0.0071   0.0023   0.0027   0.0048   0.00   32.6    0.00000    0.00000    0.00000   0.00000  0.00000  0.00000  0.00000  0.00000  0.00000
2022/03/25 14:12:43.500   4160669.4975    677753.4132   4771009.1987   1  14   0.0060   0.0036   0.0074   0.0022   0.0036   0.0047   0.00   33.4    0.00000    0.00000    0.00000   0.00000  0.00000  0.00000  0.00000  0.00000  0.00000
2022/03/25 14:12:43.600   4160669.8029    677753.7766   4771008.8105   1  15   0.0064   0.0035   0.0068   0.0015   0.0037   0.0052   0.00   34.5    0.00000    0.00000    0.00000   0.00000  0.00000  0.00000  0.00000  0.00000  0.00000
2022/03/25 14:12:43.700   4160670.1486    677754.1560   4771008.4629   1  14   0.0064   0.0048   0.0072   0.0013   0.0036   0.0050   0.00   35.6    0.00000    0.00000    0.00000   0.00000  0.00000  0.00000  0.00000  0.00000  0.00000
2022/03/25 14:12:43.800   4160670.4922    677754.5404   4771008.1018   1  13   0.0064   0.0038   0.0071   0.0012   0.0041   0.0049   0.00   36.7    0.00000    0.00000    0.00000   0.00000  0.00000  0.00000  0.00000  0.00000  0.00000
2022/03/25 14:12:43.900   4160670.8506    677754.9177   4771007.7401   1  13   0.0068   0.0033   0.0071   0.0020   0.0033   0.0050   0.00   37.1    0.00000    0.00000    0.00000   0.00000  0.00000  0.00000  0.00000  0.00000  0.00000
2022/03/25 14:12:44.000   4160671.1935    677755.2869   4771007.3753   1  14   0.0065   0.0029   0.0070   0.0021   0.0039   0.0050   0.00   37.5    0.00000    0.00000    0.00000   0.00000  0.00000  0.00000  0.00000  0.00000  0.00000
2022/03/25 14:12:44.100   4160671.5068    677755.6549   4771007.0154   1  14   0.0064   0.0042   0.0071   0.0006   0.0043   0.0051   0.00   39.4    0.00000    0.00000    0.00000   0.00000  0.00000  0.00000  0.00000  0.00000  0.00000
2022/03/25 14:12:44.200   4160671.8719    677755.9866   4771006.6136   1  11   0.0065   0.0051   0.0079   0.0016   0.0042   0.0048   0.00   39.3    0.00000    0.00000    0.00000   0.00000  0.00000  0.00000  0.00000  0.00000  0.00000
2022/03/25 14:12:44.300   4160672.2248    677756.3541   4771006.2591   1  12   0.0067   0.0049   0.0080   0.0021   0.0043   0.0048   0.00   40.5    0.00000    0.00000    0.00000   0.00000  0.00000  0.00000  0.00000  0.00000  0.00000
2022/03/25 14:12:44.400   4160672.5307    677756.7709   4771005.9450   1  14   0.0061   0.0033   0.0070   0.0023   0.0035   0.0050   0.00   40.8    0.00000    0.00000    0.00000   0.00000  0.00000  0.00000  0.00000  0.00000  0.00000
2022/03/25 14:12:44.500   4160672.9002    677757.0742   4771005.5091   1  14   0.0062   0.0047   0.0078   0.0020   0.0046   0.0048   0.00   41.4    0.00000    0.00000    0.00000   0.00000  0.00000  0.00000  0.00000  0.00000  0.00000
2022/03/25 14:12:44.600   4160673.2970    677757.4098   4771005.1339   1  13   0.0065   0.0040   0.0072  -0.0017   0.0045   0.0052   0.00   42.9    0.00000    0.00000    0.00000   0.00000  0.00000  0.00000  0.00000  0.00000  0.00000
2022/03/25 14:12:44.700   4160673.6498    677757.7671   4771004.7607   1  13   0.0068   0.0047   0.0077   0.0015   0.0045   0.0049   0.00   43.1    0.00000    0.00000    0.00000   0.00000  0.00000  0.00000  0.00000  0.00000  0.00000
2022/03/25 14:12:44.800   4160674.0017    677758.1032   4771004.3723   1  13   0.0068   0.0053   0.0077   0.0023   0.0042   0.0048   0.00   44.3    0.00000    0.00000    0.00000   0.00000  0.00000  0.00000  0.00000  0.00000  0.00000
2022/03/25 14:12:44.900   4160674.3670    677758.4462   4771003.9939   1  13   0.0064   0.0046   0.0075  -0.0013   0.0046   0.0049   0.00   45.0    0.00000    0.00000    0.00000   0.00000  0.00000  0.00000  0.00000  0.00000  0.00000
2022/03/25 14:12:45.000   4160674.7371    677758.7854   4771003.6122   1  13   0.0065   0.0045   0.0075   0.0017   0.0048   0.0046   0.00   46.5    0.00000    0.00000    0.00000   0.00000  0.00000  0.00000  0.00000  0.00000  0.00000
2022/03/25 14:12:45.100   4160675.1049    677759.1247   4771003.2340   1  13   0.0066   0.0046   0.0077  -0.0010   0.0046   0.0047   0.00   47.4    0.00000    0.00000    0.00000   0.00000  0.00000  0.00000  0.00000  0.00000  0.00000
2022/03/25 14:12:45.200   4160675.4750    677759.4609   4771002.8548   1  13   0.0065   0.0046   0.0074   0.0011   0.0042   0.0050   0.00   46.9    0.00000    0.00000    0.00000   0.00000  0.00000  0.00000  0.00000  0.00000  0.00000
2022/03/25 14:12:45.300   4160675.8697    677759.8160   4771002.4945   1  13   0.0073   0.0043   0.0077   0.0021   0.0050   0.0052   0.00   45.5    0.00000    0.00000    0.00000   0.00000  0.00000  0.00000  0.00000  0.00000  0.00000
2022/03/25 14:12:45.400   4160676.2200    677760.1318   4771002.0955   1  14   0.0069   0.0044   0.0075   0.0016   0.0049   0.0050   0.00   45.5    0.00000    0.00000    0.00000   0.00000  0.00000  0.00000  0.00000  0.00000  0.00000
2022/03/25 14:12:45.500   4160676.5991    677760.4629   4771001.7140   1  14   0.0065   0.0041   0.0072  -0.0018   0.0045   0.0047   0.00    3.2    0.00000    0.00000    0.00000   0.00000  0.00000  0.00000  0.00000  0.00000  0.00000
2022/03/25 14:12:45.600   4160676.9899    677760.7965   4771001.3533   1  13   0.0071   0.0042   0.0071   0.0018   0.0041   0.0049   0.00    5.6    0.00000    0.00000    0.00000   0.00000  0.00000  0.00000  0.00000  0.00000  0.00000
2022/03/25 14:12:45.700   4160677.3716    677761.1331   4771000.9682   1  14   0.0068   0.0046   0.0068  -0.0010   0.0039   0.0047   0.00    4.3    0.00000    0.00000    0.00000   0.00000  0.00000  0.00000  0.00000  0.00000  0.00000
2022/03/25 14:12:45.800   4160677.7188    677761.4620   4771000.5729   1  14   0.0086   0.0055   0.0077   0.0042   0.0053   0.0067   0.00   10.7    0.00000    0.00000    0.00000   0.00000  0.00000  0.00000  0.00000  0.00000  0.00000
2022/03/25 14:12:45.900   4160678.0973    677761.7933   4771000.1948   1  14   0.0078   0.0051   0.0073   0.0036   0.0050   0.0064   0.00   11.3    0.00000    0.00000    0.00000   0.00000  0.00000  0.00000  0.00000  0.00000  0.00000
2022/03/25 14:12:46.000   4160678.4958    677762.1283   4770999.8179   1  16   0.0073   0.0047   0.0074   0.0035   0.0047   0.0060   0.00    3.9    0.00000    0.00000    0.00000   0.00000  0.00000  0.00000  0.00000  0.00000  0.00000
2022/03/25 14:12:46.100   4160678.8583    677762.4355   4770999.4130   2  16   0.0086   0.0055   0.0090   0.0031   0.0058   0.0064   0.00    2.1    0.00000    0.00000    0.00000   0.00000  0.00000  0.00000  0.00000  0.00000  0.00000
2022/03/25 14:12:46.200   4160679.2243    677762.7507   4770999.0205   1  14   0.0083   0.0056   0.0080   0.0048   0.0052   0.0070   0.00   12.1    0.00000    0.00000    0.00000   0.00000  0.00000  0.00000  0.00000  0.00000  0.00000
2022/03/25 14:12:46.300   4160679.6086    677763.0632   4770998.6242   1  14   0.0080   0.0055   0.0080   0.0047   0.0054   0.0066   0.00   15.8    0.00000    0.00000    0.00000   0.00000  0.00000  0.00000  0.00000  0.00000  0.00000
2022/03/25 14:12:46.400   4160679.9756    677763.3825   4770998.2201   1  14   0.0082   0.0053   0.0080   0.0050   0.0053   0.0067   0.00   19.4    0.00000    0.00000    0.00000   0.00000  0.00000  0.00000  0.00000  0.00000  0.00000
2022/03/25 14:12:46.500   4160680.3807    677763.7038   4770997.8469   1  14   0.0077   0.0053   0.0079   0.0047   0.0054   0.0068   0.00    8.0    0.00000    0.00000    0.00000   0.00000  0.00000  0.00000  0.00000  0.00000  0.00000
2022/03/25 14:12:46.600   4160680.7595    677764.0278   4770997.4643   1  14   0.0075   0.0053   0.0079   0.0046   0.0055   0.0068   0.00    8.6    0.00000    0.00000    0.00000   0.00000  0.00000  0.00000  0.00000  0.00000  0.00000
2022/03/25 14:12:46.700   4160681.1416    677764.3271   4770997.0686   1  14   0.0076   0.0062   0.0088   0.0052   0.0063   0.0071   0.00   10.1    0.00000    0.00000    0.00000   0.00000  0.00000  0.00000  0.00000  0.00000  0.00000
2022/03/25 14:12:46.800   4160681.5184    677764.6309   4770996.6745   1  13   0.0079   0.0060   0.0088   0.0052   0.0064   0.0069   0.00   11.5    0.00000    0.00000    0.00000   0.00000  0.00000  0.00000  0.00000  0.00000  0.00000
2022/03/25 14:12:46.900   4160681.8912    677764.9471   4770996.2911   1  13   0.0087   0.0059   0.0088   0.0051   0.0063   0.0073   0.00   63.4    0.00000    0.00000    0.00000   0.00000  0.00000  0.00000  0.00000  0.00000  0.00000
2022/03/25 14:12:47.000   4160682.2987    677765.2482   4770995.9077   1  14   0.0068   0.0050   0.0080   0.0036   0.0052   0.0061   0.00    3.7    0.00000    0.00000    0.00000   0.00000  0.00000  0.00000  0.00000  0.00000  0.00000
2022/03/25 14:12:47.100   4160682.6780    677765.5638   4770995.5265   1  14   0.0070   0.0050   0.0079   0.0035   0.0053   0.0060   0.00    8.2    0.00000    0.00000    0.00000   0.00000  0.00000  0.00000  0.00000  0.00000  0.00000
2022/03/25 14:12:47.200   4160683.0649    677765.8683   4770995.1431   1  13   0.0083   0.0055   0.0085   0.0045   0.0056   0.0069   0.00   12.7    0.00000    0.00000    0.00000   0.00000  0.00000  0.00000  0.00000  0.00000  0.00000
2022/03/25 14:12:47.300   4160683.4652    677766.1639   4770994.7565   1  13   0.0075   0.0058   0.0084   0.0040   0.0054   0.0065   0.00    4.5    0.00000    0.00000    0.00000   0.00000  0.00000  0.00000  0.00000  0.00000  0.00000
2022/03/25 14:12:47.400   4160683.8294    677766.4537   4770994.3379   1  13   0.0081   0.0051   0.0082   0.0040   0.0057   0.0062   0.00    3.9    0.00000    0.00000    0.00000   0.00000  0.00000  0.00000  0.00000  0.00000  0.00000
2022/03/25 14:12:47.500   4160684.2110    677766.7486   4770993.9607   1  13   0.0085   0.0054   0.0086   0.0043   0.0059   0.0067   0.00   12.4    0.00000    0.00000    0.00000   0.00000  0.00000  0.00000  0.00000  0.00000  0.00000
2022/03/25 14:12:47.600   4160684.5782    677767.0517   4770993.5788   1  12   0.0087   0.0056   0.0087   0.0042   0.0058   0.0066   0.00   24.6    0.00000    0.00000    0.00000   0.00000  0.00000  0.00000  0.00000  0.00000  0.00000
2022/03/25 14:12:47.700   4160684.9687    677767.3308   4770993.1800   1  12   0.0083   0.0055   0.0085   0.0041   0.0056   0.0069   0.00   31.3    0.00000    0.00000    0.00000   0.00000  0.00000  0.00000  0.00000  0.00000  0.00000
2022/03/25 14:12:47.800   4160685.3361    677767.6253   4770992.7949   1  12   0.0085   0.0056   0.0085   0.0041   0.0057   0.0068   0.00   29.3    0.00000    0.00000    0.00000   0.00000  0.00000  0.00000  0.00000  0.00000  0.00000
2022/03/25 14:12:47.900   4160685.7237    677767.9281   4770992.4254   1  12   0.0090   0.0076   0.0102   0.0014   0.0079   0.0057   0.00   37.7    0.00000    0.00000    0.00000   0.00000  0.00000  0.00000  0.00000  0.00000  0.00000
2022/03/25 14:12:48.000   4160686.1261    677768.2114   4770992.0311   1  11   0.0085   0.0058   0.0085   0.0042   0.0056   0.0069   0.00    6.2    0.00000    0.00000    0.00000   0.00000  0.00000  0.00000  0.00000  0.00000  0.00000
2022/03/25 14:12:48.100   4160686.5236    677768.4982   4770991.6511   1  11   0.0086   0.0056   0.0084   0.0042   0.0059   0.0068   0.00    9.9    0.00000    0.00000    0.00000   0.00000  0.00000  0.00000  0.00000  0.00000  0.00000
2022/03/25 14:12:48.200   4160686.9328    677768.7996   4770991.2827   1  11   0.0086   0.0059   0.0086   0.0044   0.0056   0.0067   0.00   15.6    0.00000    0.00000    0.00000   0.00000  0.00000  0.00000  0.00000  0.00000  0.00000
2022/03/25 14:12:48.300   4160687.3245    677769.0659   4770990.8865   1  11   0.0086   0.0057   0.0087   0.0044   0.0058   0.0066   0.00   19.5    0.00000    0.00000    0.00000   0.00000  0.00000  0.00000  0.00000  0.00000  0.00000
2022/03/25 14:12:48.400   4160687.7269    677769.3818   4770990.5264   1  11   0.0076   0.0049   0.0079   0.0027   0.0048   0.0058   0.00    4.8    0.00000    0.00000    0.00000   0.00000  0.00000  0.00000  0.00000  0.00000  0.00000
2022/03/25 14:12:48.500   4160688.0465    677769.5797   4770990.0837   1  11   0.0276   0.0275   0.0230   0.0268   0.0246   0.0246   0.00   35.0    0.00000    0.00000    0.00000   0.00000  0.00000  0.00000  0.00000  0.00000  0.00000
2022/03/25 14:12:48.600   4160688.4370    677769.8512   4770989.6944   1   9   0.0216   0.0206   0.0177   0.0198   0.0184   0.0184   0.00   38.1    0.00000    0.00000    0.00000   0.00000  0.00000  0.00000  0.00000  0.00000  0.00000
2022/03/25 14:12:48.700   4160688.8404    677770.1510   4770989.3227   1  10   0.0183   0.0172   0.0153   0.0164   0.0154   0.0155   0.00   38.9    0.00000    0.00000    0.00000   0.00000  0.00000  0.00000  0.00000  0.00000  0.00000
2022/03/25 14:12:48.800   4160689.2298    677770.3956   4770988.9283   1  10   0.0181   0.0164   0.0153   0.0160   0.0150   0.0156   0.00   37.1    0.00000    0.00000    0.00000   0.00000  0.00000  0.00000  0.00000  0.00000  0.00000
2022/03/25 14:12:48.900   4160689.5648    677770.6157   4770988.5215   1  11   0.0168   0.0148   0.0140   0.0145   0.0135   0.0142   0.00   42.4    0.00000    0.00000    0.00000   0.00000  0.00000  0.00000  0.00000  0.00000  0.00000
2022/03/25 14:12:49.000   4160689.8871    677770.8204   4770988.0923   1  11   0.0160   0.0138   0.0131   0.0135   0.0126   0.0134   0.00   45.6    0.00000    0.00000    0.00000   0.00000  0.00000  0.00000  0.00000  0.00000  0.00000
2022/03/25 14:12:49.100   4160690.3644    677771.1677   4770987.7665   1  10   0.0114   0.0082   0.0099   0.0076   0.0077   0.0091   0.00    4.1    0.00000    0.00000    0.00000   0.00000  0.00000  0.00000  0.00000  0.00000  0.00000
2022/03/25 14:12:49.200   4160690.7624    677771.4393   4770987.3862   1  10   0.0107   0.0068   0.0088   0.0065   0.0067   0.0084   0.00    5.8    0.00000    0.00000    0.00000   0.00000  0.00000  0.00000  0.00000  0.00000  0.00000
2022/03/25 14:12:49.300   4160691.1492    677771.7053   4770987.0130   1  10   0.0107   0.0069   0.0087   0.0066   0.0066   0.0084   0.00    7.4    0.00000    0.00000    0.00000   0.00000  0.00000  0.00000  0.00000  0.00000  0.00000
2022/03/25 14:12:49.400   4160691.5283    677771.9669   4770986.6254   1  10   0.0107   0.0067   0.0087   0.0065   0.0067   0.0084   0.00    8.8    0.00000    0.00000    0.00000   0.00000  0.00000  0.00000  0.00000  0.00000  0.00000
2022/03/25 14:12:49.500   4160691.8978    677772.2131   4770986.2280   1  10   0.0108   0.0070   0.0089   0.0065   0.0066   0.0083   0.00   10.8    0.00000    0.00000    0.00000   0.00000  0.00000  0.00000  0.00000  0.00000  0.00000
2022/03/25 14:12:49.600   4160692.2911    677772.4813   4770985.8570   1  11   0.0105   0.0064   0.0087   0.0062   0.0063   0.0080   0.00   10.0    0.00000    0.00000    0.00000   0.00000  0.00000  0.00000  0.00000  0.00000  0.00000
2022/03/25 14:12:49.700   4160692.6628    677772.7187   4770985.4656   1  11   0.0102   0.0062   0.0084   0.0057   0.0061   0.0080   0.00   11.0    0.00000    0.00000    0.00000   0.00000  0.00000  0.00000  0.00000  0.00000  0.00000
2022/03/25 14:12:49.800   4160693.0643    677772.9746   4770985.0985   1  13   0.0103   0.0058   0.0084   0.0058   0.0058   0.0078   0.00   12.1    0.00000    0.00000    0.00000   0.00000  0.00000  0.00000  0.00000  0.00000  0.00000
2022/03/25 14:12:49.900   4160693.4329    677773.2190   4770984.7063   1  13   0.0108   0.0068   0.0095   0.0065   0.0066   0.0087   0.00   13.2    0.00000    0.00000    0.00000   0.00000  0.00000  0.00000  0.00000  0.00000  0.00000
2022/03/25 14:12:50.000   4160693.8314    677773.4719   4770984.3430   1  12   0.0107   0.0063   0.0094   0.0065   0.0067   0.0087   0.00   14.1    0.00000    0.00000    0.00000   0.00000  0.00000  0.00000  0.00000  0.00000  0.00000
2022/03/25 14:12:50.100   4160694.1990    677773.7048   4770983.9481   1  12   0.0107   0.0060   0.0091   0.0066   0.0065   0.0086   0.00   15.0    0.00000    0.00000    0.00000   0.00000  0.00000  0.00000  0.00000  0.00000  0.00000
2022/03/25 14:12:50.200   4160694.5833    677773.9450   4770983.5660   1  13   0.0106   0.0058   0.0089   0.0063   0.0066   0.0088   0.00   15.9    0.00000    0.00000    0.00000   0.00000  0.00000  0.00000  0.00000  0.00000  0.00000
2022/03/25 14:12:50.300   4160694.9661    677774.1780   4770983.1816   1  13   0.0087   0.0061   0.0088   0.0060   0.0063   0.0079   0.00    3.7    0.00000    0.00000    0.00000   0.00000  0.00000  0.00000  0.00000  0.00000  0.00000
2022/03/25 14:12:50.400   4160695.3617    677774.4349   4770982.8293   1  13   0.0087   0.0055   0.0081   0.0058   0.0056   0.0073   0.00    5.0    0.00000    0.00000    0.00000   0.00000  0.00000  0.00000  0.00000  0.00000  0.00000
2022/03/25 14:12:50.500   4160695.7609    677774.7069   4770982.4861   1  13   0.0084   0.0054   0.0082   0.0055   0.0058   0.0074   0.00    3.6    0.00000    0.00000    0.00000   0.00000  0.00000  0.00000  0.00000  0.00000  0.00000
2022/03/25 14:12:50.600   4160696.1479    677774.9547   4770982.1264   1  13   0.0086   0.0062   0.0089   0.0061   0.0062   0.0078   0.00    6.2    0.00000    0.00000    0.00000   0.00000  0.00000  0.00000  0.00000  0.00000  0.00000
2022/03/25 14:12:50.700   4160696.4854    677775.1174   4770981.6580   1  13   0.0090   0.0070   0.0102   0.0066   0.0074   0.0085   0.00   14.3    0.00000    0.00000    0.00000   0.00000  0.00000  0.00000  0.00000  0.00000  0.00000
2022/03/25 14:12:50.800   4160696.8731    677775.3530   4770981.2915   1  15   0.0091   0.0070   0.0100   0.0067   0.0075   0.0085   0.00   16.5    0.00000    0.00000    0.00000   0.00000  0.00000  0.00000  0.00000  0.00000  0.00000
2022/03/25 14:12:50.900   4160697.2586    677775.5920   4770980.9298   1  15   0.0081   0.0059   0.0089   0.0056   0.0062   0.0075   0.00   18.0    0.00000    0.00000    0.00000   0.00000  0.00000  0.00000  0.00000  0.00000  0.00000
2022/03/25 14:12:51.000   4160697.6269    677775.8147   4770980.5510   1  15   0.0073   0.0049   0.0079   0.0046   0.0052   0.0065   0.00    5.9    0.00000    0.00000    0.00000   0.00000  0.00000  0.00000  0.00000  0.00000  0.00000
2022/03/25 14:12:51.100   4160698.0209    677776.0258   4770980.1667   1  15   0.0072   0.0052   0.0086   0.0045   0.0058   0.0068   0.00    7.4    0.00000    0.00000    0.00000   0.00000  0.00000  0.00000  0.00000  0.00000  0.00000
2022/03/25 14:12:51.200   4160698.3921    677776.2430   4770979.7810   1  14   0.0071   0.0055   0.0087   0.0046   0.0057   0.0065   0.00    5.2    0.00000    0.00000    0.00000   0.00000  0.00000  0.00000  0.00000  0.00000  0.00000
2022/03/25 14:12:51.300   4160698.7797    677776.4633   4770979.3990   1  14   0.0074   0.0052   0.0086   0.0050   0.0059   0.0065   0.00    3.4    0.00000    0.00000    0.00000   0.00000  0.00000  0.00000  0.00000  0.00000  0.00000
2022/03/25 14:12:51.400   4160699.1701    677776.6815   4770979.0221   1  14   0.0068   0.0054   0.0084   0.0049   0.0056   0.0069   0.00    6.2    0.00000    0.00000    0.00000   0.00000  0.00000  0.00000  0.00000  0.00000  0.00000
2022/03/25 14:12:51.500   4160699.5673    677776.9142   4770978.6588   1  14   0.0071   0.0052   0.0085   0.0045   0.0057   0.0069   0.00    8.4    0.00000    0.00000    0.00000   0.00000  0.00000  0.00000  0.00000  0.00000  0.00000
2022/03/25 14:12:51.600   4160699.9539    677777.1167   4770978.2476   1  14   0.0072   0.0055   0.0086   0.0049   0.0056   0.0066   0.00   11.5    0.00000    0.00000    0.00000   0.00000  0.00000  0.00000  0.00000  0.00000  0.00000
2022/03/25 14:12:51.700   4160700.3446    677777.3321   4770977.8507   1  14   0.0066   0.0053   0.0084   0.0041   0.0060   0.0067   0.00   14.4    0.00000    0.00000    0.00000   0.00000  0.00000  0.00000  0.00000  0.00000  0.00000
2022/03/25 14:12:51.800   4160700.7574    677777.5547   4770977.4658   1  14   0.0067   0.0054   0.0086   0.0047   0.0057   0.0065   0.00   17.0    0.00000    0.00000    0.00000   0.00000  0.00000  0.00000  0.00000  0.00000  0.00000
2022/03/25 14:12:51.900   4160701.1832    677777.7920   4770977.0870   1  14   0.0067   0.0050   0.0084   0.0046   0.0057   0.0067   0.00   19.3    0.00000    0.00000    0.00000   0.00000  0.00000  0.00000  0.00000  0.00000  0.00000
2022/03/25 14:12:52.000   4160701.5795    677778.0142   4770976.6786   1  13   0.0082   0.0071   0.0098   0.0065   0.0074   0.0082   0.00   20.5    0.00000    0.00000    0.00000   0.00000  0.00000  0.00000  0.00000  0.00000  0.00000
2022/03/25 14:12:52.100   4160701.9867    677778.2371   4770976.2909   1  13   0.0084   0.0068   0.0098   0.0065   0.0075   0.0081   0.00   22.7    0.00000    0.00000    0.00000   0.00000  0.00000  0.00000  0.00000  0.00000  0.00000
2022/03/25 14:12:52.200   4160702.4069    677778.4668   4770975.8919   1  13   0.0084   0.0069   0.0097   0.0064   0.0074   0.0084   0.00   24.9    0.00000    0.00000    0.00000   0.00000  0.00000  0.00000  0.00000  0.00000  0.00000
2022/03/25 14:12:52.300   4160702.8380    677778.6881   4770975.4872   1  13   0.0085   0.0066   0.0098   0.0065   0.0076   0.0080   0.00   25.2    0.00000    0.00000    0.00000   0.00000  0.00000  0.00000  0.00000  0.00000  0.00000
2022/03/25 14:12:52.400   4160703.2565    677778.9141   4770975.0951   1  14   0.0083   0.0068   0.0099   0.0064   0.0076   0.0081   0.00   25.8    0.00000    0.00000    0.00000   0.00000  0.00000  0.00000  0.00000  0.00000  0.00000
2022/03/25 14:12:52.500   4160703.6510    677779.0991   4770974.6550   1  14   0.0083   0.0066   0.0092   0.0059   0.0067   0.0076   0.00   25.9    0.00000    0.00000    0.00000   0.00000  0.00000  0.00000  0.00000  0.00000  0.00000
2022/03/25 14:12:52.600   4160704.0592    677779.2904   4770974.2187   1  15   0.0077   0.0058   0.0080   0.0054   0.0056   0.0070   0.00    5.9    0.00000    0.00000    0.00000   0.00000  0.00000  0.00000  0.00000  0.00000  0.00000
2022/03/25 14:12:52.700   4160704.4917    677779.5092   4770973.8096   1  14   0.0077   0.0059   0.0081   0.0055   0.0059   0.0072   0.00    7.3    0.00000    0.00000    0.00000   0.00000  0.00000  0.00000  0.00000  0.00000  0.00000
2022/03/25 14:12:52.800   4160704.9206    677779.7271   4770973.3904   1  15   0.0077   0.0056   0.0081   0.0056   0.0058   0.0075   0.00    9.0    0.00000    0.00000    0.00000   0.00000  0.00000  0.00000  0.00000  0.00000  0.00000
2022/03/25 14:12:52.900   4160705.3631    677779.9508   4770972.9648   1  15   0.0079   0.0056   0.0079   0.0057   0.0052   0.0069   0.00   10.4    0.00000    0.00000    0.00000   0.00000  0.00000  0.00000  0.00000  0.00000  0.00000
2022/03/25 14:12:53.000   4160705.8071    677780.1787   4770972.5442   1  15   0.0070   0.0050   0.0071   0.0048   0.0049   0.0066   0.00    4.5    0.00000    0.00000    0.00000   0.00000  0.00000  0.00000  0.00000  0.00000  0.00000
