% program   : RTKPOST ver.demo5 b34d
% inp file  : D:\Amaster\4semester\Satellitenavigation\U2\roverTest2.obs
% inp file  : D:\Amaster\4semester\Satellitenavigation\U2\baseTest2.obs
% inp file  : D:\Amaster\4semester\Satellitenavigation\U2\base.nav
% obs start : 2022/03/25 14:12:28.0 GPST (week2202 483148.0s)
% obs end   : 2022/03/25 14:16:44.8 GPST (week2202 483404.8s)
% pos mode  : Kinematic
% freqs     : L1+L2/E5b
% solution  : Backward
% elev mask : 5.0 deg
% dynamics  : off
% tidecorr  : off
% ionos opt : OFF
% tropo opt : OFF
% ephemeris : Broadcast
% navi sys  : GPS
% amb res   : Fix and Hold
% val thres : 4.0
% antenna1  :                       ( 0.0000  0.0000  0.0000)
% antenna2  :                       ( 0.0000  0.0000  0.0000)
% ref pos   :  4161163.2044    678675.6669   4770420.4641
%
% (x/y/z-ecef=WGS84,Q=1:fix,2:float,3:sbas,4:dgps,5:single,6:ppp,ns=# of satellites)
%  GPST                      x-ecef(m)      y-ecef(m)      z-ecef(m)   Q  ns   sdx(m)   sdy(m)   sdz(m)  sdxy(m)  sdyz(m)  sdzx(m) age(s)  ratio    vx(m/s)    vy(m/s)    vz(m/s)      sdvx     sdvy     sdvz    sdvxy    sdvyz    sdvzx
2022/03/25 14:16:44.800   4161064.0385    678761.0214   4770494.0536   2   8   2.0017   1.2363   2.6540   0.9950   1.0730   1.8541   0.00    0.0    0.00000    0.00000    0.00000   0.00000  0.00000  0.00000  0.00000  0.00000  0.00000
2022/03/25 14:16:44.700   4161064.0278    678760.9137   4770493.7873   2   8   1.4852   0.9080   1.9423   0.7275   0.7781   1.3653   0.00    0.0    0.00000    0.00000    0.00000   0.00000  0.00000  0.00000  0.00000  0.00000  0.00000
2022/03/25 14:16:44.600   4161064.0293    678760.8761   4770493.6909   2   8   1.2337   0.7513   1.6051   0.6010   0.6408   1.1309   0.00    0.0    0.00000    0.00000    0.00000   0.00000  0.00000  0.00000  0.00000  0.00000  0.00000
2022/03/25 14:16:44.500   4161064.1388    678760.9337   4770493.7882   2   8   1.0779   0.6551   1.3986   0.5235   0.5574   0.9866   0.00    0.0    0.00000    0.00000    0.00000   0.00000  0.00000  0.00000  0.00000  0.00000  0.00000
2022/03/25 14:16:44.400   4161064.2037    678760.9692   4770493.8449   2   8   0.9693   0.5883   1.2556   0.4699   0.4998   0.8864   0.00    0.0    0.00000    0.00000    0.00000   0.00000  0.00000  0.00000  0.00000  0.00000  0.00000
2022/03/25 14:16:44.300   4161064.2007    678760.9705   4770493.8595   2   8   0.8881   0.5386   1.1490   0.4300   0.4571   0.8116   0.00    0.0    0.00000    0.00000    0.00000   0.00000  0.00000  0.00000  0.00000  0.00000  0.00000
2022/03/25 14:16:44.200   4161064.2007    678760.9727   4770493.8690   2   8   0.8243   0.4996   1.0657   0.3988   0.4237   0.7530   0.00    0.0    0.00000    0.00000    0.00000   0.00000  0.00000  0.00000  0.00000  0.00000  0.00000
2022/03/25 14:16:44.100   4161064.1834    678760.9656   4770493.9083   2   8   0.7726   0.4680   0.9981   0.3735   0.3967   0.7055   0.00    0.0    0.00000    0.00000    0.00000   0.00000  0.00000  0.00000  0.00000  0.00000  0.00000
2022/03/25 14:16:44.000   4161064.1686    678760.9621   4770493.9381   2   8   0.7295   0.4418   0.9420   0.3525   0.3742   0.6659   0.00    0.0    0.00000    0.00000    0.00000   0.00000  0.00000  0.00000  0.00000  0.00000  0.00000
2022/03/25 14:16:43.900   4161064.1546    678760.9483   4770493.9271   2   8   0.6929   0.4195   0.8943   0.3347   0.3552   0.6324   0.00    0.0    0.00000    0.00000    0.00000   0.00000  0.00000  0.00000  0.00000  0.00000  0.00000
2022/03/25 14:16:43.800   4161064.1410    678760.9373   4770493.9151   2   8   0.6613   0.4003   0.8532   0.3193   0.3388   0.6034   0.00    0.0    0.00000    0.00000    0.00000   0.00000  0.00000  0.00000  0.00000  0.00000  0.00000
2022/03/25 14:16:43.700   4161064.1365    678760.9570   4770493.9386   2   8   0.6337   0.3835   0.8173   0.3059   0.3245   0.5781   0.00    0.0    0.00000    0.00000    0.00000   0.00000  0.00000  0.00000  0.00000  0.00000  0.00000
2022/03/25 14:16:43.600   4161064.1351    678760.9766   4770493.9648   2   8   0.6092   0.3686   0.7855   0.2940   0.3119   0.5557   0.00    0.0    0.00000    0.00000    0.00000   0.00000  0.00000  0.00000  0.00000  0.00000  0.00000
2022/03/25 14:16:43.500   4161064.1571    678760.9950   4770493.9916   2   8   0.5874   0.3554   0.7572   0.2834   0.3006   0.5357   0.00    0.0    0.00000    0.00000    0.00000   0.00000  0.00000  0.00000  0.00000  0.00000  0.00000
2022/03/25 14:16:43.400   4161064.1837    678761.0160   4770494.0216   2   8   0.5677   0.3435   0.7317   0.2739   0.2904   0.5177   0.00    0.0    0.00000    0.00000    0.00000   0.00000  0.00000  0.00000  0.00000  0.00000  0.00000
2022/03/25 14:16:43.300   4161064.1977    678761.0101   4770494.0230   2   8   0.5500   0.3327   0.7086   0.2652   0.2813   0.5014   0.00    0.0    0.00000    0.00000    0.00000   0.00000  0.00000  0.00000  0.00000  0.00000  0.00000
2022/03/25 14:16:43.200   4161064.2096    678761.0062   4770494.0297   2   8   0.5337   0.3228   0.6875   0.2574   0.2729   0.4865   0.00    0.0    0.00000    0.00000    0.00000   0.00000  0.00000  0.00000  0.00000  0.00000  0.00000
2022/03/25 14:16:43.100   4161064.2188    678761.0080   4770494.0458   2   8   0.5188   0.3138   0.6682   0.2502   0.2652   0.4729   0.00    0.0    0.00000    0.00000    0.00000   0.00000  0.00000  0.00000  0.00000  0.00000  0.00000
2022/03/25 14:16:43.000   4161064.2260    678761.0119   4770494.0620   2   8   0.5051   0.3055   0.6504   0.2435   0.2582   0.4603   0.00    0.0    0.00000    0.00000    0.00000   0.00000  0.00000  0.00000  0.00000  0.00000  0.00000
2022/03/25 14:16:42.900   4161064.2314    678761.0153   4770494.0705   2   8   0.4925   0.2979   0.6339   0.2374   0.2516   0.4487   0.00    0.0    0.00000    0.00000    0.00000   0.00000  0.00000  0.00000  0.00000  0.00000  0.00000
2022/03/25 14:16:42.800   4161064.2393    678761.0176   4770494.0840   2   8   0.4807   0.2907   0.6186   0.2317   0.2456   0.4379   0.00    0.0    0.00000    0.00000    0.00000   0.00000  0.00000  0.00000  0.00000  0.00000  0.00000
2022/03/25 14:16:42.700   4161064.2239    678761.0108   4770494.0548   2   8   0.4697   0.2841   0.6044   0.2264   0.2399   0.4279   0.00    0.0    0.00000    0.00000    0.00000   0.00000  0.00000  0.00000  0.00000  0.00000  0.00000
2022/03/25 14:16:42.600   4161064.2191    678761.0056   4770494.0375   2   8   0.4595   0.2779   0.5911   0.2214   0.2346   0.4185   0.00    0.0    0.00000    0.00000    0.00000   0.00000  0.00000  0.00000  0.00000  0.00000  0.00000
2022/03/25 14:16:42.500   4161064.2125    678760.9998   4770494.0223   2   8   0.4498   0.2721   0.5786   0.2168   0.2297   0.4096   0.00    0.0    0.00000    0.00000    0.00000   0.00000  0.00000  0.00000  0.00000  0.00000  0.00000
2022/03/25 14:16:42.400   4161064.2095    678760.9950   4770494.0133   2   8   0.4408   0.2666   0.5668   0.2124   0.2250   0.4013   0.00    0.0    0.00000    0.00000    0.00000   0.00000  0.00000  0.00000  0.00000  0.00000  0.00000
2022/03/25 14:16:42.300   4161064.2152    678761.0029   4770494.0244   2   8   0.4323   0.2615   0.5558   0.2083   0.2206   0.3935   0.00    0.0    0.00000    0.00000    0.00000   0.00000  0.00000  0.00000  0.00000  0.00000  0.00000
2022/03/25 14:16:42.200   4161064.2165    678761.0096   4770494.0271   2   8   0.4242   0.2566   0.5453   0.2044   0.2165   0.3861   0.00    0.0    0.00000    0.00000    0.00000   0.00000  0.00000  0.00000  0.00000  0.00000  0.00000
2022/03/25 14:16:42.100   4161064.2268    678761.0154   4770494.0490   2   8   0.4166   0.2520   0.5354   0.2007   0.2126   0.3791   0.00    0.0    0.00000    0.00000    0.00000   0.00000  0.00000  0.00000  0.00000  0.00000  0.00000
2022/03/25 14:16:42.000   4161064.2344    678761.0190   4770494.0637   2   8   0.4094   0.2476   0.5260   0.1972   0.2088   0.3725   0.00    0.0    0.00000    0.00000    0.00000   0.00000  0.00000  0.00000  0.00000  0.00000  0.00000
2022/03/25 14:16:41.900   4161064.2369    678761.0217   4770494.0740   2   8   0.4025   0.2435   0.5170   0.1939   0.2053   0.3662   0.00    0.0    0.00000    0.00000    0.00000   0.00000  0.00000  0.00000  0.00000  0.00000  0.00000
2022/03/25 14:16:41.800   4161064.2486    678761.0261   4770494.0909   2   8   0.3960   0.2396   0.5085   0.1907   0.2019   0.3602   0.00    0.0    0.00000    0.00000    0.00000   0.00000  0.00000  0.00000  0.00000  0.00000  0.00000
2022/03/25 14:16:41.700   4161064.2609    678761.0228   4770494.1008   2   8   0.3897   0.2358   0.5004   0.1877   0.1987   0.3544   0.00    0.0    0.00000    0.00000    0.00000   0.00000  0.00000  0.00000  0.00000  0.00000  0.00000
2022/03/25 14:16:41.600   4161064.2702    678761.0207   4770494.1003   2   8   0.3838   0.2322   0.4926   0.1848   0.1957   0.3489   0.00    0.0    0.00000    0.00000    0.00000   0.00000  0.00000  0.00000  0.00000  0.00000  0.00000
2022/03/25 14:16:41.500   4161064.2825    678761.0174   4770494.1137   2   8   0.3781   0.2288   0.4852   0.1821   0.1927   0.3437   0.00    0.0    0.00000    0.00000    0.00000   0.00000  0.00000  0.00000  0.00000  0.00000  0.00000
2022/03/25 14:16:41.400   4161064.2970    678761.0175   4770494.1305   2   8   0.3727   0.2255   0.4781   0.1795   0.1899   0.3387   0.00    0.0    0.00000    0.00000    0.00000   0.00000  0.00000  0.00000  0.00000  0.00000  0.00000
2022/03/25 14:16:41.300   4161064.2971    678761.0180   4770494.1215   2   8   0.3674   0.2224   0.4713   0.1769   0.1872   0.3339   0.00    0.0    0.00000    0.00000    0.00000   0.00000  0.00000  0.00000  0.00000  0.00000  0.00000
2022/03/25 14:16:41.200   4161064.2956    678761.0211   4770494.1099   2   8   0.3624   0.2193   0.4647   0.1745   0.1847   0.3292   0.00    0.0    0.00000    0.00000    0.00000   0.00000  0.00000  0.00000  0.00000  0.00000  0.00000
2022/03/25 14:16:41.100   4161064.2984    678761.0257   4770494.1265   2   8   0.3576   0.2164   0.4584   0.1722   0.1822   0.3248   0.00    0.0    0.00000    0.00000    0.00000   0.00000  0.00000  0.00000  0.00000  0.00000  0.00000
2022/03/25 14:16:41.000   4161064.2973    678761.0293   4770494.1359   2   8   0.3530   0.2137   0.4524   0.1699   0.1798   0.3205   0.00    0.0    0.00000    0.00000    0.00000   0.00000  0.00000  0.00000  0.00000  0.00000  0.00000
2022/03/25 14:16:40.900   4161064.2954    678761.0287   4770494.1473   2   8   0.3485   0.2110   0.4465   0.1678   0.1775   0.3164   0.00    0.0    0.00000    0.00000    0.00000   0.00000  0.00000  0.00000  0.00000  0.00000  0.00000
2022/03/25 14:16:40.800   4161064.2983    678761.0326   4770494.1651   2   8   0.3442   0.2084   0.4409   0.1657   0.1753   0.3124   0.00    0.0    0.00000    0.00000    0.00000   0.00000  0.00000  0.00000  0.00000  0.00000  0.00000
2022/03/25 14:16:40.700   4161064.2911    678761.0275   4770494.1637   2   8   0.3401   0.2059   0.4355   0.1637   0.1731   0.3086   0.00    0.0    0.00000    0.00000    0.00000   0.00000  0.00000  0.00000  0.00000  0.00000  0.00000
2022/03/25 14:16:40.600   4161064.2931    678761.0287   4770494.1679   2   8   0.3360   0.2035   0.4302   0.1618   0.1711   0.3049   0.00    0.0    0.00000    0.00000    0.00000   0.00000  0.00000  0.00000  0.00000  0.00000  0.00000
2022/03/25 14:16:40.500   4161064.2945    678761.0283   4770494.1676   2   8   0.3322   0.2012   0.4251   0.1599   0.1691   0.3013   0.00    0.0    0.00000    0.00000    0.00000   0.00000  0.00000  0.00000  0.00000  0.00000  0.00000
2022/03/25 14:16:40.400   4161064.2963    678761.0321   4770494.1699   2   8   0.3284   0.1989   0.4202   0.1581   0.1671   0.2978   0.00    0.0    0.00000    0.00000    0.00000   0.00000  0.00000  0.00000  0.00000  0.00000  0.00000
2022/03/25 14:16:40.300   4161064.2895    678761.0349   4770494.1688   2   8   0.3248   0.1968   0.4154   0.1563   0.1653   0.2945   0.00    0.0    0.00000    0.00000    0.00000   0.00000  0.00000  0.00000  0.00000  0.00000  0.00000
2022/03/25 14:16:40.200   4161064.2890    678761.0412   4770494.1705   2   8   0.3213   0.1946   0.4108   0.1546   0.1635   0.2912   0.00    0.0    0.00000    0.00000    0.00000   0.00000  0.00000  0.00000  0.00000  0.00000  0.00000
2022/03/25 14:16:40.100   4161064.2940    678761.0408   4770494.1875   2   8   0.3179   0.1926   0.4064   0.1530   0.1617   0.2881   0.00    0.0    0.00000    0.00000    0.00000   0.00000  0.00000  0.00000  0.00000  0.00000  0.00000
2022/03/25 14:16:40.000   4161064.5010    678761.2527   4770494.5083   1   8   0.0077   0.0047   0.0095   0.0041   0.0035   0.0067   0.00   32.1    0.00000    0.00000    0.00000   0.00000  0.00000  0.00000  0.00000  0.00000  0.00000
2022/03/25 14:16:39.900   4161064.5025    678761.2543   4770494.5084   1   8   0.0073   0.0046   0.0096   0.0035   0.0038   0.0068   0.00   31.9    0.00000    0.00000    0.00000   0.00000  0.00000  0.00000  0.00000  0.00000  0.00000
2022/03/25 14:16:39.800   4161064.5021    678761.2539   4770494.5069   1   8   0.0072   0.0044   0.0096   0.0033   0.0039   0.0068   0.00   32.2    0.00000    0.00000    0.00000   0.00000  0.00000  0.00000  0.00000  0.00000  0.00000
2022/03/25 14:16:39.700   4161064.5004    678761.2516   4770494.5079   1   8   0.0075   0.0045   0.0096   0.0037   0.0037   0.0068   0.00   32.3    0.00000    0.00000    0.00000   0.00000  0.00000  0.00000  0.00000  0.00000  0.00000
2022/03/25 14:16:39.600   4161064.5027    678761.2527   4770494.5106   1   8   0.0073   0.0043   0.0096   0.0038   0.0038   0.0068   0.00   32.1    0.00000    0.00000    0.00000   0.00000  0.00000  0.00000  0.00000  0.00000  0.00000
2022/03/25 14:16:39.500   4161064.5018    678761.2553   4770494.5094   1   8   0.0074   0.0046   0.0096   0.0035   0.0038   0.0067   0.00   32.2    0.00000    0.00000    0.00000   0.00000  0.00000  0.00000  0.00000  0.00000  0.00000
2022/03/25 14:16:39.400   4161064.5028    678761.2527   4770494.5095   1   8   0.0075   0.0044   0.0096   0.0037   0.0038   0.0067   0.00   31.9    0.00000    0.00000    0.00000   0.00000  0.00000  0.00000  0.00000  0.00000  0.00000
2022/03/25 14:16:39.300   4161064.5023    678761.2529   4770494.5083   1   8   0.0073   0.0043   0.0096   0.0038   0.0037   0.0069   0.00   32.0    0.00000    0.00000    0.00000   0.00000  0.00000  0.00000  0.00000  0.00000  0.00000
2022/03/25 14:16:39.200   4161064.5014    678761.2531   4770494.5076   1   8   0.0074   0.0045   0.0096   0.0036   0.0036   0.0067   0.00   32.0    0.00000    0.00000    0.00000   0.00000  0.00000  0.00000  0.00000  0.00000  0.00000
2022/03/25 14:16:39.100   4161064.4995    678761.2531   4770494.5038   1   8   0.0075   0.0044   0.0095   0.0037   0.0038   0.0069   0.00   31.8    0.00000    0.00000    0.00000   0.00000  0.00000  0.00000  0.00000  0.00000  0.00000
2022/03/25 14:16:39.000   4161064.4998    678761.2534   4770494.5089   1   8   0.0071   0.0043   0.0095   0.0034   0.0038   0.0069   0.00   31.8    0.00000    0.00000    0.00000   0.00000  0.00000  0.00000  0.00000  0.00000  0.00000
2022/03/25 14:16:38.900   4161064.5008    678761.2522   4770494.5098   1   8   0.0073   0.0042   0.0096   0.0035   0.0039   0.0067   0.00   32.1    0.00000    0.00000    0.00000   0.00000  0.00000  0.00000  0.00000  0.00000  0.00000
2022/03/25 14:16:38.800   4161064.5008    678761.2531   4770494.5054   1   8   0.0074   0.0047   0.0096   0.0038   0.0037   0.0068   0.00   32.4    0.00000    0.00000    0.00000   0.00000  0.00000  0.00000  0.00000  0.00000  0.00000
2022/03/25 14:16:38.700   4161064.5021    678761.2538   4770494.5085   1   8   0.0075   0.0041   0.0095   0.0035   0.0039   0.0068   0.00   32.5    0.00000    0.00000    0.00000   0.00000  0.00000  0.00000  0.00000  0.00000  0.00000
2022/03/25 14:16:38.600   4161064.5009    678761.2527   4770494.5060   1   8   0.0074   0.0045   0.0096   0.0034   0.0039   0.0068   0.00   32.3    0.00000    0.00000    0.00000   0.00000  0.00000  0.00000  0.00000  0.00000  0.00000
2022/03/25 14:16:38.500   4161064.4996    678761.2529   4770494.5100   1   8   0.0077   0.0045   0.0096   0.0034   0.0039   0.0067   0.00   32.1    0.00000    0.00000    0.00000   0.00000  0.00000  0.00000  0.00000  0.00000  0.00000
2022/03/25 14:16:38.400   4161064.5041    678761.2565   4770494.5067   1   8   0.0070   0.0045   0.0096   0.0038   0.0036   0.0069   0.00   32.0    0.00000    0.00000    0.00000   0.00000  0.00000  0.00000  0.00000  0.00000  0.00000
2022/03/25 14:16:38.300   4161064.5036    678761.2576   4770494.5035   1   8   0.0075   0.0046   0.0096   0.0039   0.0038   0.0067   0.00   32.1    0.00000    0.00000    0.00000   0.00000  0.00000  0.00000  0.00000  0.00000  0.00000
2022/03/25 14:16:38.200   4161064.5033    678761.2561   4770494.5132   1   8   0.0073   0.0041   0.0096   0.0033   0.0040   0.0068   0.00   32.2    0.00000    0.00000    0.00000   0.00000  0.00000  0.00000  0.00000  0.00000  0.00000
2022/03/25 14:16:38.100   4161064.4959    678761.2499   4770494.5082   1   8   0.0076   0.0045   0.0096   0.0037   0.0039   0.0067   0.00   32.2    0.00000    0.00000    0.00000   0.00000  0.00000  0.00000  0.00000  0.00000  0.00000
2022/03/25 14:16:38.000   4161064.4960    678761.2485   4770494.5090   1   8   0.0075   0.0046   0.0096   0.0034   0.0037   0.0068   0.00   70.0    0.00000    0.00000    0.00000   0.00000  0.00000  0.00000  0.00000  0.00000  0.00000
2022/03/25 14:16:37.900   4161064.5014    678761.2534   4770494.5088   1   8   0.0073   0.0046   0.0095   0.0032   0.0037   0.0068   0.00   77.5    0.00000    0.00000    0.00000   0.00000  0.00000  0.00000  0.00000  0.00000  0.00000
2022/03/25 14:16:37.800   4161064.5060    678761.2626   4770494.5076   1   8   0.0075   0.0049   0.0095   0.0040   0.0036   0.0068   0.00   78.2    0.00000    0.00000    0.00000   0.00000  0.00000  0.00000  0.00000  0.00000  0.00000
2022/03/25 14:16:37.700   4161064.5058    678761.2774   4770494.5022   1   8   0.0073   0.0045   0.0096   0.0036   0.0037   0.0069   0.00   78.7    0.00000    0.00000    0.00000   0.00000  0.00000  0.00000  0.00000  0.00000  0.00000
2022/03/25 14:16:37.600   4161064.5089    678761.2918   4770494.5026   1   8   0.0078   0.0048   0.0096   0.0040   0.0037   0.0067   0.00   79.8    0.00000    0.00000    0.00000   0.00000  0.00000  0.00000  0.00000  0.00000  0.00000
2022/03/25 14:16:37.500   4161064.5061    678761.3085   4770494.4927   1   8   0.0073   0.0043   0.0096   0.0038   0.0037   0.0068   0.00   80.5    0.00000    0.00000    0.00000   0.00000  0.00000  0.00000  0.00000  0.00000  0.00000
2022/03/25 14:16:37.400   4161064.5159    678761.3333   4770494.4849   1   8   0.0074   0.0040   0.0095   0.0031   0.0040   0.0069   0.00   79.5    0.00000    0.00000    0.00000   0.00000  0.00000  0.00000  0.00000  0.00000  0.00000
2022/03/25 14:16:37.300   4161064.5289    678761.3646   4770494.4742   1   8   0.0075   0.0046   0.0096   0.0037   0.0038   0.0067   0.00   79.2    0.00000    0.00000    0.00000   0.00000  0.00000  0.00000  0.00000  0.00000  0.00000
2022/03/25 14:16:37.200   4161064.5238    678761.3993   4770494.4572   1   8   0.0078   0.0047   0.0096   0.0035   0.0037   0.0066   0.00   79.9    0.00000    0.00000    0.00000   0.00000  0.00000  0.00000  0.00000  0.00000  0.00000
2022/03/25 14:16:37.100   4161064.5266    678761.4433   4770494.4640   1   8   0.0072   0.0040   0.0095   0.0028   0.0041   0.0069   0.00   80.3    0.00000    0.00000    0.00000   0.00000  0.00000  0.00000  0.00000  0.00000  0.00000
2022/03/25 14:16:37.000   4161064.5309    678761.4864   4770494.4603   1   8   0.0076   0.0045   0.0096   0.0038   0.0037   0.0068   0.00   81.3    0.00000    0.00000    0.00000   0.00000  0.00000  0.00000  0.00000  0.00000  0.00000
2022/03/25 14:16:36.900   4161064.5371    678761.5336   4770494.4431   1   8   0.0074   0.0048   0.0096   0.0037   0.0035   0.0068   0.00   82.1    0.00000    0.00000    0.00000   0.00000  0.00000  0.00000  0.00000  0.00000  0.00000
2022/03/25 14:16:36.800   4161064.5570    678761.6019   4770494.4194   1   8   0.0076   0.0044   0.0096   0.0033   0.0039   0.0068   0.00   82.9    0.00000    0.00000    0.00000   0.00000  0.00000  0.00000  0.00000  0.00000  0.00000
2022/03/25 14:16:36.700   4161064.5765    678761.6880   4770494.3939   1   8   0.0070   0.0044   0.0095   0.0041   0.0038   0.0069   0.00   82.3    0.00000    0.00000    0.00000   0.00000  0.00000  0.00000  0.00000  0.00000  0.00000
2022/03/25 14:16:36.600   4161064.5843    678761.7873   4770494.3687   1   8   0.0072   0.0045   0.0096   0.0037   0.0037   0.0068   0.00   82.9    0.00000    0.00000    0.00000   0.00000  0.00000  0.00000  0.00000  0.00000  0.00000
2022/03/25 14:16:36.500   4161064.5853    678761.8948   4770494.3615   1   8   0.0076   0.0046   0.0096   0.0037   0.0037   0.0068   0.00   82.5    0.00000    0.00000    0.00000   0.00000  0.00000  0.00000  0.00000  0.00000  0.00000
2022/03/25 14:16:36.400   4161064.5852    678762.0139   4770494.3483   1   8   0.0073   0.0043   0.0096   0.0036   0.0038   0.0068   0.00   83.6    0.00000    0.00000    0.00000   0.00000  0.00000  0.00000  0.00000  0.00000  0.00000
2022/03/25 14:16:36.300   4161064.5801    678762.1421   4770494.3266   1   8   0.0075   0.0044   0.0096   0.0037   0.0038   0.0068   0.00   85.0    0.00000    0.00000    0.00000   0.00000  0.00000  0.00000  0.00000  0.00000  0.00000
2022/03/25 14:16:36.200   4161064.5997    678762.2686   4770494.3091   1   8   0.0077   0.0044   0.0096   0.0037   0.0037   0.0066   0.00   87.0    0.00000    0.00000    0.00000   0.00000  0.00000  0.00000  0.00000  0.00000  0.00000
2022/03/25 14:16:36.100   4161064.6311    678762.3992   4770494.2872   1   8   0.0075   0.0044   0.0096   0.0035   0.0038   0.0067   0.00   88.2    0.00000    0.00000    0.00000   0.00000  0.00000  0.00000  0.00000  0.00000  0.00000
2022/03/25 14:16:36.000   4161064.6216    678762.5426   4770494.2671   1   8   0.0072   0.0044   0.0096   0.0030   0.0038   0.0068   0.00   90.2    0.00000    0.00000    0.00000   0.00000  0.00000  0.00000  0.00000  0.00000  0.00000
2022/03/25 14:16:35.900   4161064.6201    678762.7046   4770494.2614   1   8   0.0076   0.0040   0.0096   0.0034   0.0039   0.0068   0.00   92.1    0.00000    0.00000    0.00000   0.00000  0.00000  0.00000  0.00000  0.00000  0.00000
2022/03/25 14:16:35.800   4161064.6103    678762.8708   4770494.2532   1   8   0.0074   0.0044   0.0095   0.0035   0.0038   0.0068   0.00   94.0    0.00000    0.00000    0.00000   0.00000  0.00000  0.00000  0.00000  0.00000  0.00000
2022/03/25 14:16:35.700   4161064.5946    678763.0341   4770494.2464   1   8   0.0076   0.0047   0.0096   0.0036   0.0038   0.0068   0.00   96.1    0.00000    0.00000    0.00000   0.00000  0.00000  0.00000  0.00000  0.00000  0.00000
2022/03/25 14:16:35.600   4161064.5688    678763.2000   4770494.2397   1   8   0.0075   0.0044   0.0096   0.0034   0.0039   0.0068   0.00   97.4    0.00000    0.00000    0.00000   0.00000  0.00000  0.00000  0.00000  0.00000  0.00000
2022/03/25 14:16:35.500   4161064.5525    678763.3662   4770494.2349   1   8   0.0076   0.0048   0.0096   0.0040   0.0036   0.0068   0.00   98.0    0.00000    0.00000    0.00000   0.00000  0.00000  0.00000  0.00000  0.00000  0.00000
2022/03/25 14:16:35.400   4161064.5338    678763.5273   4770494.2249   1   8   0.0070   0.0040   0.0095   0.0035   0.0039   0.0069   0.00   99.8    0.00000    0.00000    0.00000   0.00000  0.00000  0.00000  0.00000  0.00000  0.00000
2022/03/25 14:16:35.300   4161064.5048    678763.7010   4770494.2505   1   8   0.0077   0.0046   0.0096   0.0035   0.0039   0.0068   0.00  100.4    0.00000    0.00000    0.00000   0.00000  0.00000  0.00000  0.00000  0.00000  0.00000
2022/03/25 14:16:35.200   4161064.4507    678763.8740   4770494.2833   1   8   0.0072   0.0045   0.0095   0.0038   0.0038   0.0069   0.00  100.9    0.00000    0.00000    0.00000   0.00000  0.00000  0.00000  0.00000  0.00000  0.00000
2022/03/25 14:16:35.100   4161064.3845    678764.0392   4770494.3050   1   8   0.0077   0.0044   0.0096   0.0034   0.0039   0.0067   0.00  102.7    0.00000    0.00000    0.00000   0.00000  0.00000  0.00000  0.00000  0.00000  0.00000
2022/03/25 14:16:35.000   4161064.3213    678764.1993   4770494.3428   1   8   0.0076   0.0045   0.0096   0.0039   0.0036   0.0067   0.00  104.8    0.00000    0.00000    0.00000   0.00000  0.00000  0.00000  0.00000  0.00000  0.00000
2022/03/25 14:16:34.900   4161064.2674    678764.3553   4770494.3826   1   8   0.0075   0.0047   0.0096   0.0037   0.0036   0.0068   0.00  107.0    0.00000    0.00000    0.00000   0.00000  0.00000  0.00000  0.00000  0.00000  0.00000
2022/03/25 14:16:34.800   4161064.2085    678764.5236   4770494.4056   1   8   0.0075   0.0044   0.0095   0.0032   0.0039   0.0068   0.00  109.7    0.00000    0.00000    0.00000   0.00000  0.00000  0.00000  0.00000  0.00000  0.00000
2022/03/25 14:16:34.700   4161064.1594    678764.7041   4770494.4437   1   8   0.0073   0.0045   0.0095   0.0035   0.0037   0.0069   0.00  113.3    0.00000    0.00000    0.00000   0.00000  0.00000  0.00000  0.00000  0.00000  0.00000
2022/03/25 14:16:34.600   4161064.0897    678764.8716   4770494.4818   1   8   0.0075   0.0045   0.0096   0.0036   0.0037   0.0068   0.00  113.3    0.00000    0.00000    0.00000   0.00000  0.00000  0.00000  0.00000  0.00000  0.00000
2022/03/25 14:16:34.500   4161064.0158    678765.0322   4770494.5243   1   8   0.0069   0.0040   0.0096   0.0033   0.0039   0.0068   0.00  115.1    0.00000    0.00000    0.00000   0.00000  0.00000  0.00000  0.00000  0.00000  0.00000
2022/03/25 14:16:34.400   4161063.9335    678765.1875   4770494.5719   1   8   0.0074   0.0042   0.0096   0.0038   0.0037   0.0068   0.00  116.5    0.00000    0.00000    0.00000   0.00000  0.00000  0.00000  0.00000  0.00000  0.00000
2022/03/25 14:16:34.300   4161063.8436    678765.3357   4770494.6296   1   8   0.0075   0.0043   0.0096   0.0040   0.0037   0.0069   0.00  117.0    0.00000    0.00000    0.00000   0.00000  0.00000  0.00000  0.00000  0.00000  0.00000
2022/03/25 14:16:34.200   4161063.7555    678765.4895   4770494.6959   1   8   0.0074   0.0046   0.0095   0.0037   0.0039   0.0069   0.00  118.3    0.00000    0.00000    0.00000   0.00000  0.00000  0.00000  0.00000  0.00000  0.00000
2022/03/25 14:16:34.100   4161063.6548    678765.6368   4770494.7595   1   8   0.0075   0.0046   0.0096   0.0036   0.0038   0.0067   0.00  118.7    0.00000    0.00000    0.00000   0.00000  0.00000  0.00000  0.00000  0.00000  0.00000
2022/03/25 14:16:34.000   4161063.5586    678765.7792   4770494.8346   1   8   0.0073   0.0044   0.0096   0.0039   0.0036   0.0068   0.00  119.6    0.00000    0.00000    0.00000   0.00000  0.00000  0.00000  0.00000  0.00000  0.00000
2022/03/25 14:16:33.900   4161063.4492    678765.9225   4770494.9050   1   8   0.0077   0.0047   0.0096   0.0040   0.0035   0.0067   0.00  121.2    0.00000    0.00000    0.00000   0.00000  0.00000  0.00000  0.00000  0.00000  0.00000
2022/03/25 14:16:33.800   4161063.3398    678766.0661   4770494.9786   1   8   0.0073   0.0047   0.0096   0.0034   0.0037   0.0068   0.00  123.1    0.00000    0.00000    0.00000   0.00000  0.00000  0.00000  0.00000  0.00000  0.00000
2022/03/25 14:16:33.700   4161063.2261    678766.2039   4770495.0615   1   8   0.0078   0.0047   0.0096   0.0035   0.0038   0.0067   0.00  124.5    0.00000    0.00000    0.00000   0.00000  0.00000  0.00000  0.00000  0.00000  0.00000
2022/03/25 14:16:33.600   4161063.1076    678766.3399   4770495.1484   1   8   0.0078   0.0046   0.0096   0.0032   0.0039   0.0067   0.00  125.2    0.00000    0.00000    0.00000   0.00000  0.00000  0.00000  0.00000  0.00000  0.00000
2022/03/25 14:16:33.500   4161062.9833    678766.4702   4770495.2390   1   8   0.0074   0.0048   0.0095   0.0039   0.0036   0.0068   0.00  125.3    0.00000    0.00000    0.00000   0.00000  0.00000  0.00000  0.00000  0.00000  0.00000
2022/03/25 14:16:33.400   4161062.8542    678766.6052   4770495.3348   1   8   0.0077   0.0045   0.0096   0.0035   0.0038   0.0067   0.00  125.0    0.00000    0.00000    0.00000   0.00000  0.00000  0.00000  0.00000  0.00000  0.00000
2022/03/25 14:16:33.300   4161062.7271    678766.7380   4770495.4413   1   8   0.0075   0.0044   0.0096   0.0036   0.0038   0.0068   0.00  126.3    0.00000    0.00000    0.00000   0.00000  0.00000  0.00000  0.00000  0.00000  0.00000
2022/03/25 14:16:33.200   4161062.5865    678766.8660   4770495.5468   1   8   0.0072   0.0045   0.0095   0.0036   0.0036   0.0069   0.00  127.9    0.00000    0.00000    0.00000   0.00000  0.00000  0.00000  0.00000  0.00000  0.00000
2022/03/25 14:16:33.100   4161062.4379    678766.9892   4770495.6600   1   8   0.0077   0.0046   0.0096   0.0029   0.0040   0.0067   0.00  129.5    0.00000    0.00000    0.00000   0.00000  0.00000  0.00000  0.00000  0.00000  0.00000
2022/03/25 14:16:33.000   4161062.2831    678767.1103   4770495.7736   1   8   0.0071   0.0046   0.0095   0.0036   0.0038   0.0068   0.00  129.9    0.00000    0.00000    0.00000   0.00000  0.00000  0.00000  0.00000  0.00000  0.00000
2022/03/25 14:16:32.900   4161062.1361    678767.2324   4770495.8864   1   8   0.0075   0.0047   0.0095   0.0036   0.0038   0.0069   0.00  129.9    0.00000    0.00000    0.00000   0.00000  0.00000  0.00000  0.00000  0.00000  0.00000
2022/03/25 14:16:32.800   4161061.9877    678767.3535   4770496.0102   1   8   0.0073   0.0044   0.0096   0.0034   0.0039   0.0068   0.00  130.9    0.00000    0.00000    0.00000   0.00000  0.00000  0.00000  0.00000  0.00000  0.00000
2022/03/25 14:16:32.700   4161061.8346    678767.4780   4770496.1246   1   8   0.0074   0.0044   0.0096   0.0040   0.0037   0.0067   0.00  132.2    0.00000    0.00000    0.00000   0.00000  0.00000  0.00000  0.00000  0.00000  0.00000
2022/03/25 14:16:32.600   4161061.6799    678767.6004   4770496.2368   1   8   0.0076   0.0043   0.0095   0.0037   0.0039   0.0068   0.00  132.8    0.00000    0.00000    0.00000   0.00000  0.00000  0.00000  0.00000  0.00000  0.00000
2022/03/25 14:16:32.500   4161061.5354    678767.7285   4770496.3600   1   8   0.0074   0.0043   0.0096   0.0035   0.0041   0.0068   0.00  134.5    0.00000    0.00000    0.00000   0.00000  0.00000  0.00000  0.00000  0.00000  0.00000
2022/03/25 14:16:32.400   4161061.3806    678767.8509   4770496.4763   1   8   0.0073   0.0046   0.0096   0.0039   0.0035   0.0069   0.00  135.0    0.00000    0.00000    0.00000   0.00000  0.00000  0.00000  0.00000  0.00000  0.00000
2022/03/25 14:16:32.300   4161061.2321    678767.9791   4770496.5946   1   8   0.0076   0.0046   0.0095   0.0039   0.0037   0.0069   0.00  136.2    0.00000    0.00000    0.00000   0.00000  0.00000  0.00000  0.00000  0.00000  0.00000
2022/03/25 14:16:32.200   4161061.0746    678768.1039   4770496.7057   1   8   0.0071   0.0043   0.0095   0.0033   0.0038   0.0069   0.00  137.1    0.00000    0.00000    0.00000   0.00000  0.00000  0.00000  0.00000  0.00000  0.00000
2022/03/25 14:16:32.100   4161060.9196    678768.2226   4770496.8169   1   8   0.0078   0.0045   0.0096   0.0033   0.0039   0.0068   0.00  137.8    0.00000    0.00000    0.00000   0.00000  0.00000  0.00000  0.00000  0.00000  0.00000
2022/03/25 14:16:32.000   4161060.7683    678768.3481   4770496.9404   1   8   0.0078   0.0049   0.0096   0.0037   0.0035   0.0067   0.00  139.3    0.00000    0.00000    0.00000   0.00000  0.00000  0.00000  0.00000  0.00000  0.00000
2022/03/25 14:16:31.900   4161060.6139    678768.4748   4770497.0577   1   8   0.0070   0.0041   0.0096   0.0039   0.0037   0.0069   0.00  140.1    0.00000    0.00000    0.00000   0.00000  0.00000  0.00000  0.00000  0.00000  0.00000
2022/03/25 14:16:31.800   4161060.4679    678768.6048   4770497.1716   1   8   0.0075   0.0042   0.0096   0.0034   0.0039   0.0068   0.00  140.0    0.00000    0.00000    0.00000   0.00000  0.00000  0.00000  0.00000  0.00000  0.00000
2022/03/25 14:16:31.700   4161060.3178    678768.7401   4770497.2792   1   8   0.0074   0.0043   0.0096   0.0037   0.0038   0.0067   0.00  141.7    0.00000    0.00000    0.00000   0.00000  0.00000  0.00000  0.00000  0.00000  0.00000
2022/03/25 14:16:31.600   4161060.1679    678768.8782   4770497.3888   1   8   0.0075   0.0044   0.0096   0.0034   0.0038   0.0068   0.00  142.3    0.00000    0.00000    0.00000   0.00000  0.00000  0.00000  0.00000  0.00000  0.00000
2022/03/25 14:16:31.500   4161060.0191    678769.0132   4770497.5029   1   8   0.0076   0.0047   0.0096   0.0040   0.0037   0.0067   0.00  143.0    0.00000    0.00000    0.00000   0.00000  0.00000  0.00000  0.00000  0.00000  0.00000
2022/03/25 14:16:31.400   4161059.8638    678769.1543   4770497.6079   1   8   0.0074   0.0044   0.0096   0.0042   0.0035   0.0067   0.00  144.0    0.00000    0.00000    0.00000   0.00000  0.00000  0.00000  0.00000  0.00000  0.00000
2022/03/25 14:16:31.300   4161059.7119    678769.3027   4770497.7056   1   8   0.0076   0.0045   0.0096   0.0035   0.0039   0.0067   0.00  143.7    0.00000    0.00000    0.00000   0.00000  0.00000  0.00000  0.00000  0.00000  0.00000
2022/03/25 14:16:31.200   4161059.5733    678769.4645   4770497.8116   1   8   0.0075   0.0045   0.0096   0.0037   0.0039   0.0068   0.00  145.1    0.00000    0.00000    0.00000   0.00000  0.00000  0.00000  0.00000  0.00000  0.00000
2022/03/25 14:16:31.100   4161059.4233    678769.6354   4770497.9059   1   8   0.0073   0.0045   0.0095   0.0037   0.0038   0.0068   0.00  144.7    0.00000    0.00000    0.00000   0.00000  0.00000  0.00000  0.00000  0.00000  0.00000
2022/03/25 14:16:31.000   4161059.2853    678769.8225   4770498.0060   1   8   0.0075   0.0044   0.0096   0.0039   0.0038   0.0067   0.00  145.6    0.00000    0.00000    0.00000   0.00000  0.00000  0.00000  0.00000  0.00000  0.00000
2022/03/25 14:16:30.900   4161059.1443    678770.0129   4770498.0919   1   8   0.0072   0.0042   0.0096   0.0029   0.0041   0.0068   0.00  145.5    0.00000    0.00000    0.00000   0.00000  0.00000  0.00000  0.00000  0.00000  0.00000
2022/03/25 14:16:30.800   4161059.0115    678770.2118   4770498.1843   1   8   0.0075   0.0044   0.0096   0.0032   0.0039   0.0067   0.00  146.3    0.00000    0.00000    0.00000   0.00000  0.00000  0.00000  0.00000  0.00000  0.00000
2022/03/25 14:16:30.700   4161058.8858    678770.4148   4770498.2730   1   8   0.0079   0.0045   0.0096   0.0038   0.0038   0.0067   0.00  147.3    0.00000    0.00000    0.00000   0.00000  0.00000  0.00000  0.00000  0.00000  0.00000
2022/03/25 14:16:30.600   4161058.7574    678770.6192   4770498.3516   1   8   0.0075   0.0047   0.0095   0.0038   0.0036   0.0068   0.00  147.3    0.00000    0.00000    0.00000   0.00000  0.00000  0.00000  0.00000  0.00000  0.00000
2022/03/25 14:16:30.500   4161058.6329    678770.8313   4770498.4365   1   8   0.0076   0.0045   0.0096   0.0037   0.0037   0.0068   0.00  147.0    0.00000    0.00000    0.00000   0.00000  0.00000  0.00000  0.00000  0.00000  0.00000
2022/03/25 14:16:30.400   4161058.5161    678771.0584   4770498.5190   1   8   0.0069   0.0044   0.0095   0.0037   0.0038   0.0069   0.00  147.4    0.00000    0.00000    0.00000   0.00000  0.00000  0.00000  0.00000  0.00000  0.00000
2022/03/25 14:16:30.300   4161058.4025    678771.2916   4770498.5794   1   8   0.0074   0.0043   0.0095   0.0035   0.0039   0.0068   0.00  148.3    0.00000    0.00000    0.00000   0.00000  0.00000  0.00000  0.00000  0.00000  0.00000
2022/03/25 14:16:30.200   4161058.3069    678771.5397   4770498.6301   1   8   0.0074   0.0046   0.0096   0.0036   0.0039   0.0068   0.00  148.2    0.00000    0.00000    0.00000   0.00000  0.00000  0.00000  0.00000  0.00000  0.00000
2022/03/25 14:16:30.100   4161058.2178    678771.7926   4770498.6718   1   8   0.0079   0.0047   0.0096   0.0038   0.0036   0.0067   0.00  148.7    0.00000    0.00000    0.00000   0.00000  0.00000  0.00000  0.00000  0.00000  0.00000
2022/03/25 14:16:30.000   4161058.1394    678772.0496   4770498.7146   1   8   0.0076   0.0046   0.0096   0.0040   0.0036   0.0067   0.00  150.5    0.00000    0.00000    0.00000   0.00000  0.00000  0.00000  0.00000  0.00000  0.00000
2022/03/25 14:16:29.900   4161058.0504    678772.3103   4770498.7465   1   8   0.0072   0.0044   0.0096   0.0031   0.0038   0.0069   0.00  150.3    0.00000    0.00000    0.00000   0.00000  0.00000  0.00000  0.00000  0.00000  0.00000
2022/03/25 14:16:29.800   4161057.9736    678772.5764   4770498.7807   1   8   0.0076   0.0047   0.0096   0.0039   0.0037   0.0068   0.00  150.5    0.00000    0.00000    0.00000   0.00000  0.00000  0.00000  0.00000  0.00000  0.00000
2022/03/25 14:16:29.700   4161057.9128    678772.8466   4770498.8113   1   8   0.0070   0.0040   0.0096   0.0032   0.0040   0.0069   0.00  151.0    0.00000    0.00000    0.00000   0.00000  0.00000  0.00000  0.00000  0.00000  0.00000
2022/03/25 14:16:29.600   4161057.8578    678773.1246   4770498.8292   1   8   0.0075   0.0041   0.0096   0.0036   0.0040   0.0066   0.00  152.1    0.00000    0.00000    0.00000   0.00000  0.00000  0.00000  0.00000  0.00000  0.00000
2022/03/25 14:16:29.500   4161057.8030    678773.3942   4770498.8320   1   8   0.0076   0.0048   0.0096   0.0035   0.0039   0.0068   0.00  152.9    0.00000    0.00000    0.00000   0.00000  0.00000  0.00000  0.00000  0.00000  0.00000
2022/03/25 14:16:29.400   4161057.7605    678773.6773   4770498.8358   1   8   0.0081   0.0049   0.0096   0.0037   0.0037   0.0066   0.00  153.8    0.00000    0.00000    0.00000   0.00000  0.00000  0.00000  0.00000  0.00000  0.00000
2022/03/25 14:16:29.300   4161057.7248    678773.9708   4770498.8360   1   8   0.0073   0.0045   0.0096   0.0038   0.0036   0.0068   0.00  153.6    0.00000    0.00000    0.00000   0.00000  0.00000  0.00000  0.00000  0.00000  0.00000
2022/03/25 14:16:29.200   4161057.6982    678774.2810   4770498.8270   1   8   0.0072   0.0043   0.0096   0.0037   0.0038   0.0068   0.00  153.9    0.00000    0.00000    0.00000   0.00000  0.00000  0.00000  0.00000  0.00000  0.00000
2022/03/25 14:16:29.100   4161057.6796    678774.5938   4770498.8142   1   8   0.0076   0.0045   0.0096   0.0034   0.0040   0.0067   0.00  155.1    0.00000    0.00000    0.00000   0.00000  0.00000  0.00000  0.00000  0.00000  0.00000
2022/03/25 14:16:29.000   4161057.6685    678774.9182   4770498.7927   1   8   0.0076   0.0045   0.0096   0.0033   0.0039   0.0068   0.00  155.0    0.00000    0.00000    0.00000   0.00000  0.00000  0.00000  0.00000  0.00000  0.00000
2022/03/25 14:16:28.900   4161057.6572    678775.2476   4770498.7480   1   8   0.0078   0.0049   0.0096   0.0039   0.0036   0.0066   0.00  154.1    0.00000    0.00000    0.00000   0.00000  0.00000  0.00000  0.00000  0.00000  0.00000
2022/03/25 14:16:28.800   4161057.6628    678775.5881   4770498.7051   1   8   0.0073   0.0045   0.0096   0.0034   0.0038   0.0068   0.00  153.1    0.00000    0.00000    0.00000   0.00000  0.00000  0.00000  0.00000  0.00000  0.00000
2022/03/25 14:16:28.700   4161057.6698    678775.9356   4770498.6450   1   8   0.0070   0.0047   0.0095   0.0040   0.0037   0.0069   0.00  152.0    0.00000    0.00000    0.00000   0.00000  0.00000  0.00000  0.00000  0.00000  0.00000
2022/03/25 14:16:28.600   4161057.6927    678776.2928   4770498.5907   1   8   0.0077   0.0045   0.0096   0.0032   0.0040   0.0067   0.00  151.6    0.00000    0.00000    0.00000   0.00000  0.00000  0.00000  0.00000  0.00000  0.00000
2022/03/25 14:16:28.500   4161057.7218    678776.6585   4770498.5210   1   8   0.0078   0.0045   0.0096   0.0034   0.0038   0.0068   0.00  150.8    0.00000    0.00000    0.00000   0.00000  0.00000  0.00000  0.00000  0.00000  0.00000
2022/03/25 14:16:28.400   4161057.7577    678777.0267   4770498.4500   1   8   0.0074   0.0041   0.0095   0.0030   0.0040   0.0068   0.00  151.1    0.00000    0.00000    0.00000   0.00000  0.00000  0.00000  0.00000  0.00000  0.00000
2022/03/25 14:16:28.300   4161057.7974    678777.4038   4770498.3722   1   8   0.0071   0.0043   0.0096   0.0036   0.0039   0.0069   0.00  150.1    0.00000    0.00000    0.00000   0.00000  0.00000  0.00000  0.00000  0.00000  0.00000
2022/03/25 14:16:28.200   4161057.8426    678777.7891   4770498.2843   1   8   0.0075   0.0045   0.0096   0.0038   0.0037   0.0067   0.00  150.2    0.00000    0.00000    0.00000   0.00000  0.00000  0.00000  0.00000  0.00000  0.00000
2022/03/25 14:16:28.100   4161057.8952    678778.1793   4770498.1846   1   8   0.0074   0.0046   0.0096   0.0038   0.0036   0.0067   0.00  150.7    0.00000    0.00000    0.00000   0.00000  0.00000  0.00000  0.00000  0.00000  0.00000
2022/03/25 14:16:28.000   4161057.9514    678778.5752   4770498.0851   1   8   0.0077   0.0049   0.0096   0.0040   0.0035   0.0068   0.00  149.8    0.00000    0.00000    0.00000   0.00000  0.00000  0.00000  0.00000  0.00000  0.00000
2022/03/25 14:16:27.900   4161058.0175    678778.9747   4770497.9928   1   8   0.0075   0.0045   0.0095   0.0039   0.0036   0.0068   0.00  149.5    0.00000    0.00000    0.00000   0.00000  0.00000  0.00000  0.00000  0.00000  0.00000
2022/03/25 14:16:27.800   4161058.0717    678779.3723   4770497.8817   1   8   0.0074   0.0044   0.0096   0.0033   0.0039   0.0067   0.00  150.2    0.00000    0.00000    0.00000   0.00000  0.00000  0.00000  0.00000  0.00000  0.00000
2022/03/25 14:16:27.700   4161058.1441    678779.7765   4770497.7877   1   8   0.0076   0.0047   0.0096   0.0036   0.0037   0.0067   0.00  151.2    0.00000    0.00000    0.00000   0.00000  0.00000  0.00000  0.00000  0.00000  0.00000
2022/03/25 14:16:27.600   4161058.2057    678780.1768   4770497.6853   1   8   0.0074   0.0045   0.0096   0.0035   0.0038   0.0068   0.00  152.3    0.00000    0.00000    0.00000   0.00000  0.00000  0.00000  0.00000  0.00000  0.00000
2022/03/25 14:16:27.500   4161058.2704    678780.5761   4770497.5793   1   8   0.0077   0.0044   0.0096   0.0037   0.0038   0.0068   0.00  152.7    0.00000    0.00000    0.00000   0.00000  0.00000  0.00000  0.00000  0.00000  0.00000
2022/03/25 14:16:27.400   4161058.3347    678780.9760   4770497.4755   1   8   0.0075   0.0045   0.0096   0.0035   0.0038   0.0068   0.00  153.4    0.00000    0.00000    0.00000   0.00000  0.00000  0.00000  0.00000  0.00000  0.00000
2022/03/25 14:16:27.300   4161058.4023    678781.3760   4770497.3723   1   8   0.0077   0.0049   0.0096   0.0036   0.0037   0.0066   0.00  153.4    0.00000    0.00000    0.00000   0.00000  0.00000  0.00000  0.00000  0.00000  0.00000
2022/03/25 14:16:27.200   4161058.4659    678781.7764   4770497.2674   1   8   0.0078   0.0046   0.0096   0.0036   0.0040   0.0068   0.00  153.1    0.00000    0.00000    0.00000   0.00000  0.00000  0.00000  0.00000  0.00000  0.00000
2022/03/25 14:16:27.100   4161058.5325    678782.1763   4770497.1688   1   8   0.0070   0.0042   0.0095   0.0035   0.0039   0.0070   0.00  152.7    0.00000    0.00000    0.00000   0.00000  0.00000  0.00000  0.00000  0.00000  0.00000
2022/03/25 14:16:27.000   4161058.5981    678782.5765   4770497.0545   1   8   0.0078   0.0047   0.0097   0.0034   0.0038   0.0066   0.00  152.5    0.00000    0.00000    0.00000   0.00000  0.00000  0.00000  0.00000  0.00000  0.00000
2022/03/25 14:16:26.900   4161058.6695    678782.9787   4770496.9555   1   8   0.0077   0.0046   0.0096   0.0036   0.0037   0.0068   0.00  152.0    0.00000    0.00000    0.00000   0.00000  0.00000  0.00000  0.00000  0.00000  0.00000
2022/03/25 14:16:26.800   4161058.7288    678783.3817   4770496.8483   1   8   0.0073   0.0046   0.0096   0.0034   0.0039   0.0068   0.00  151.3    0.00000    0.00000    0.00000   0.00000  0.00000  0.00000  0.00000  0.00000  0.00000
2022/03/25 14:16:26.700   4161058.7917    678783.7822   4770496.7383   1   8   0.0075   0.0045   0.0095   0.0034   0.0036   0.0068   0.00  150.2    0.00000    0.00000    0.00000   0.00000  0.00000  0.00000  0.00000  0.00000  0.00000
2022/03/25 14:16:26.600   4161058.8573    678784.1839   4770496.6287   1   8   0.0075   0.0047   0.0096   0.0035   0.0040   0.0068   0.00  151.0    0.00000    0.00000    0.00000   0.00000  0.00000  0.00000  0.00000  0.00000  0.00000
2022/03/25 14:16:26.500   4161058.9241    678784.5851   4770496.5192   1   8   0.0073   0.0045   0.0096   0.0036   0.0036   0.0068   0.00  152.1    0.00000    0.00000    0.00000   0.00000  0.00000  0.00000  0.00000  0.00000  0.00000
2022/03/25 14:16:26.400   4161058.9825    678784.9874   4770496.4126   1   8   0.0075   0.0045   0.0096   0.0033   0.0039   0.0068   0.00  152.2    0.00000    0.00000    0.00000   0.00000  0.00000  0.00000  0.00000  0.00000  0.00000
2022/03/25 14:16:26.300   4161059.0464    678785.3905   4770496.3046   1   8   0.0071   0.0041   0.0095   0.0035   0.0038   0.0069   0.00  151.8    0.00000    0.00000    0.00000   0.00000  0.00000  0.00000  0.00000  0.00000  0.00000
2022/03/25 14:16:26.200   4161059.1100    678785.7903   4770496.1932   1   8   0.0075   0.0048   0.0096   0.0040   0.0037   0.0068   0.00  150.4    0.00000    0.00000    0.00000   0.00000  0.00000  0.00000  0.00000  0.00000  0.00000
2022/03/25 14:16:26.100   4161059.1678    678786.1927   4770496.0760   1   8   0.0074   0.0050   0.0095   0.0038   0.0035   0.0068   0.00  150.1    0.00000    0.00000    0.00000   0.00000  0.00000  0.00000  0.00000  0.00000  0.00000
2022/03/25 14:16:26.000   4161059.2305    678786.5923   4770495.9684   1   8   0.0076   0.0045   0.0096   0.0032   0.0041   0.0067   0.00  150.2    0.00000    0.00000    0.00000   0.00000  0.00000  0.00000  0.00000  0.00000  0.00000
2022/03/25 14:16:25.900   4161059.2902    678786.9885   4770495.8565   1   8   0.0075   0.0046   0.0097   0.0034   0.0039   0.0067   0.00  149.5    0.00000    0.00000    0.00000   0.00000  0.00000  0.00000  0.00000  0.00000  0.00000
2022/03/25 14:16:25.800   4161059.3541    678787.3869   4770495.7508   1   8   0.0077   0.0044   0.0096   0.0037   0.0038   0.0067   0.00  149.9    0.00000    0.00000    0.00000   0.00000  0.00000  0.00000  0.00000  0.00000  0.00000
2022/03/25 14:16:25.700   4161059.4139    678787.7841   4770495.6399   1   8   0.0074   0.0042   0.0096   0.0034   0.0039   0.0068   0.00  150.2    0.00000    0.00000    0.00000   0.00000  0.00000  0.00000  0.00000  0.00000  0.00000
2022/03/25 14:16:25.600   4161059.4724    678788.1782   4770495.5233   1   8   0.0077   0.0046   0.0096   0.0036   0.0037   0.0068   0.00  149.3    0.00000    0.00000    0.00000   0.00000  0.00000  0.00000  0.00000  0.00000  0.00000
2022/03/25 14:16:25.500   4161059.5333    678788.5720   4770495.4140   1   8   0.0075   0.0045   0.0096   0.0036   0.0037   0.0068   0.00  149.0    0.00000    0.00000    0.00000   0.00000  0.00000  0.00000  0.00000  0.00000  0.00000
2022/03/25 14:16:25.400   4161059.5953    678788.9662   4770495.3053   1   8   0.0077   0.0046   0.0096   0.0037   0.0037   0.0067   0.00  148.6    0.00000    0.00000    0.00000   0.00000  0.00000  0.00000  0.00000  0.00000  0.00000
2022/03/25 14:16:25.300   4161059.6513    678789.3567   4770495.1878   1   8   0.0071   0.0045   0.0096   0.0039   0.0038   0.0069   0.00  147.8    0.00000    0.00000    0.00000   0.00000  0.00000  0.00000  0.00000  0.00000  0.00000
2022/03/25 14:16:25.200   4161059.7103    678789.7457   4770495.0774   1   8   0.0075   0.0046   0.0096   0.0034   0.0039   0.0068   0.00  147.8    0.00000    0.00000    0.00000   0.00000  0.00000  0.00000  0.00000  0.00000  0.00000
2022/03/25 14:16:25.100   4161059.7653    678790.1322   4770494.9637   1   8   0.0072   0.0046   0.0096   0.0036   0.0039   0.0068   0.00  146.9    0.00000    0.00000    0.00000   0.00000  0.00000  0.00000  0.00000  0.00000  0.00000
2022/03/25 14:16:25.000   4161059.8280    678790.5193   4770494.8628   1   8   0.0071   0.0047   0.0096   0.0040   0.0036   0.0068   0.00  145.7    0.00000    0.00000    0.00000   0.00000  0.00000  0.00000  0.00000  0.00000  0.00000
2022/03/25 14:16:24.900   4161059.8899    678790.9016   4770494.7604   1   8   0.0074   0.0045   0.0096   0.0031   0.0040   0.0069   0.00  146.5    0.00000    0.00000    0.00000   0.00000  0.00000  0.00000  0.00000  0.00000  0.00000
2022/03/25 14:16:24.800   4161059.9522    678791.2829   4770494.6509   1   8   0.0073   0.0045   0.0096   0.0036   0.0037   0.0068   0.00  147.4    0.00000    0.00000    0.00000   0.00000  0.00000  0.00000  0.00000  0.00000  0.00000
2022/03/25 14:16:24.700   4161060.0035    678791.6663   4770494.5342   1   8   0.0072   0.0041   0.0096   0.0034   0.0038   0.0069   0.00  146.5    0.00000    0.00000    0.00000   0.00000  0.00000  0.00000  0.00000  0.00000  0.00000
2022/03/25 14:16:24.600   4161060.0665    678792.0463   4770494.4290   1   8   0.0079   0.0046   0.0097   0.0037   0.0037   0.0066   0.00  144.2    0.00000    0.00000    0.00000   0.00000  0.00000  0.00000  0.00000  0.00000  0.00000
2022/03/25 14:16:24.500   4161060.1258    678792.4240   4770494.3203   1   8   0.0070   0.0044   0.0096   0.0037   0.0038   0.0068   0.00  141.8    0.00000    0.00000    0.00000   0.00000  0.00000  0.00000  0.00000  0.00000  0.00000
2022/03/25 14:16:24.400   4161060.1860    678792.7975   4770494.2159   1   8   0.0074   0.0043   0.0095   0.0036   0.0038   0.0068   0.00  141.3    0.00000    0.00000    0.00000   0.00000  0.00000  0.00000  0.00000  0.00000  0.00000
2022/03/25 14:16:24.300   4161060.2500    678793.1749   4770494.1133   1   8   0.0074   0.0044   0.0096   0.0031   0.0040   0.0068   0.00  141.2    0.00000    0.00000    0.00000   0.00000  0.00000  0.00000  0.00000  0.00000  0.00000
2022/03/25 14:16:24.200   4161060.3131    678793.5501   4770494.0049   1   8   0.0078   0.0041   0.0096   0.0033   0.0039   0.0068   0.00  141.1    0.00000    0.00000    0.00000   0.00000  0.00000  0.00000  0.00000  0.00000  0.00000
2022/03/25 14:16:24.100   4161060.3746    678793.9262   4770493.8989   1   8   0.0076   0.0046   0.0096   0.0039   0.0036   0.0068   0.00  141.0    0.00000    0.00000    0.00000   0.00000  0.00000  0.00000  0.00000  0.00000  0.00000
2022/03/25 14:16:24.000   4161060.4340    678794.3046   4770493.7931   1   8   0.0073   0.0046   0.0096   0.0040   0.0036   0.0068   0.00  141.1    0.00000    0.00000    0.00000   0.00000  0.00000  0.00000  0.00000  0.00000  0.00000
2022/03/25 14:16:23.900   4161060.4947    678794.6813   4770493.6785   1   8   0.0072   0.0039   0.0095   0.0036   0.0037   0.0070   0.00  140.7    0.00000    0.00000    0.00000   0.00000  0.00000  0.00000  0.00000  0.00000  0.00000
2022/03/25 14:16:23.800   4161060.5645    678795.0626   4770493.5831   1   8   0.0077   0.0046   0.0095   0.0037   0.0038   0.0068   0.00  139.6    0.00000    0.00000    0.00000   0.00000  0.00000  0.00000  0.00000  0.00000  0.00000
2022/03/25 14:16:23.700   4161060.6325    678795.4442   4770493.4804   1   8   0.0075   0.0046   0.0096   0.0038   0.0035   0.0068   0.00  137.9    0.00000    0.00000    0.00000   0.00000  0.00000  0.00000  0.00000  0.00000  0.00000
2022/03/25 14:16:23.600   4161060.6934    678795.8226   4770493.3585   1   8   0.0075   0.0046   0.0096   0.0040   0.0035   0.0068   0.00  137.8    0.00000    0.00000    0.00000   0.00000  0.00000  0.00000  0.00000  0.00000  0.00000
2022/03/25 14:16:23.500   4161060.7613    678796.2038   4770493.2511   1   8   0.0074   0.0045   0.0095   0.0035   0.0038   0.0068   0.00  138.2    0.00000    0.00000    0.00000   0.00000  0.00000  0.00000  0.00000  0.00000  0.00000
2022/03/25 14:16:23.400   4161060.8280    678796.5865   4770493.1459   1   8   0.0075   0.0046   0.0096   0.0035   0.0037   0.0068   0.00  139.2    0.00000    0.00000    0.00000   0.00000  0.00000  0.00000  0.00000  0.00000  0.00000
2022/03/25 14:16:23.300   4161060.8921    678796.9677   4770493.0356   1   8   0.0076   0.0046   0.0096   0.0037   0.0039   0.0066   0.00  140.2    0.00000    0.00000    0.00000   0.00000  0.00000  0.00000  0.00000  0.00000  0.00000
2022/03/25 14:16:23.200   4161060.9602    678797.3527   4770492.9268   1   8   0.0077   0.0048   0.0096   0.0037   0.0038   0.0067   0.00  139.5    0.00000    0.00000    0.00000   0.00000  0.00000  0.00000  0.00000  0.00000  0.00000
2022/03/25 14:16:23.100   4161061.0307    678797.7385   4770492.8273   1   8   0.0074   0.0046   0.0096   0.0039   0.0037   0.0067   0.00  138.8    0.00000    0.00000    0.00000   0.00000  0.00000  0.00000  0.00000  0.00000  0.00000
2022/03/25 14:16:23.000   4161061.0939    678798.1225   4770492.7139   1   8   0.0075   0.0050   0.0096   0.0042   0.0037   0.0067   0.00  137.8    0.00000    0.00000    0.00000   0.00000  0.00000  0.00000  0.00000  0.00000  0.00000
2022/03/25 14:16:22.900   4161061.1653    678798.5087   4770492.6012   1   8   0.0077   0.0045   0.0096   0.0034   0.0039   0.0067   0.00  137.4    0.00000    0.00000    0.00000   0.00000  0.00000  0.00000  0.00000  0.00000  0.00000
2022/03/25 14:16:22.800   4161061.2361    678798.8957   4770492.4943   1   8   0.0075   0.0043   0.0095   0.0035   0.0039   0.0068   0.00  138.0    0.00000    0.00000    0.00000   0.00000  0.00000  0.00000  0.00000  0.00000  0.00000
2022/03/25 14:16:22.700   4161061.3061    678799.2833   4770492.3828   1   8   0.0074   0.0042   0.0096   0.0035   0.0039   0.0068   0.00  138.7    0.00000    0.00000    0.00000   0.00000  0.00000  0.00000  0.00000  0.00000  0.00000
2022/03/25 14:16:22.600   4161061.3675    678799.6717   4770492.2643   1   8   0.0074   0.0043   0.0096   0.0035   0.0037   0.0068   0.00  139.2    0.00000    0.00000    0.00000   0.00000  0.00000  0.00000  0.00000  0.00000  0.00000
2022/03/25 14:16:22.500   4161061.4394    678800.0637   4770492.1623   1   8   0.0072   0.0043   0.0096   0.0035   0.0039   0.0068   0.00  140.0    0.00000    0.00000    0.00000   0.00000  0.00000  0.00000  0.00000  0.00000  0.00000
2022/03/25 14:16:22.400   4161061.5161    678800.4546   4770492.0433   1   8   0.0071   0.0045   0.0096   0.0036   0.0038   0.0069   0.00  140.7    0.00000    0.00000    0.00000   0.00000  0.00000  0.00000  0.00000  0.00000  0.00000
2022/03/25 14:16:22.300   4161061.5923    678800.8443   4770491.9379   1   8   0.0070   0.0043   0.0096   0.0036   0.0036   0.0068   0.00  140.4    0.00000    0.00000    0.00000   0.00000  0.00000  0.00000  0.00000  0.00000  0.00000
2022/03/25 14:16:22.200   4161061.6607    678801.2370   4770491.8203   1   8   0.0072   0.0042   0.0095   0.0035   0.0039   0.0069   0.00  140.6    0.00000    0.00000    0.00000   0.00000  0.00000  0.00000  0.00000  0.00000  0.00000
2022/03/25 14:16:22.100   4161061.7360    678801.6304   4770491.7135   1   8   0.0071   0.0043   0.0096   0.0037   0.0038   0.0069   0.00  141.0    0.00000    0.00000    0.00000   0.00000  0.00000  0.00000  0.00000  0.00000  0.00000
2022/03/25 14:16:22.000   4161061.8078    678802.0241   4770491.5927   1   8   0.0073   0.0039   0.0096   0.0036   0.0038   0.0068   0.00  140.4    0.00000    0.00000    0.00000   0.00000  0.00000  0.00000  0.00000  0.00000  0.00000
2022/03/25 14:16:21.900   4161061.8820    678802.4185   4770491.4797   1   8   0.0070   0.0044   0.0096   0.0036   0.0039   0.0068   0.00  139.9    0.00000    0.00000    0.00000   0.00000  0.00000  0.00000  0.00000  0.00000  0.00000
2022/03/25 14:16:21.800   4161061.9603    678802.8161   4770491.3556   1   8   0.0074   0.0041   0.0095   0.0036   0.0039   0.0068   0.00  139.9    0.00000    0.00000    0.00000   0.00000  0.00000  0.00000  0.00000  0.00000  0.00000
2022/03/25 14:16:21.700   4161062.0332    678803.2116   4770491.2393   1   8   0.0074   0.0046   0.0096   0.0035   0.0038   0.0068   0.00  139.2    0.00000    0.00000    0.00000   0.00000  0.00000  0.00000  0.00000  0.00000  0.00000
2022/03/25 14:16:21.600   4161062.1125    678803.6048   4770491.1173   1   8   0.0076   0.0046   0.0095   0.0038   0.0038   0.0068   0.00  139.3    0.00000    0.00000    0.00000   0.00000  0.00000  0.00000  0.00000  0.00000  0.00000
2022/03/25 14:16:21.500   4161062.2002    678803.9956   4770490.9852   1   8   0.0075   0.0045   0.0096   0.0031   0.0039   0.0068   0.00  139.6    0.00000    0.00000    0.00000   0.00000  0.00000  0.00000  0.00000  0.00000  0.00000
2022/03/25 14:16:21.400   4161062.2889    678804.3869   4770490.8534   1   8   0.0073   0.0045   0.0096   0.0036   0.0039   0.0068   0.00  140.4    0.00000    0.00000    0.00000   0.00000  0.00000  0.00000  0.00000  0.00000  0.00000
2022/03/25 14:16:21.300   4161062.3800    678804.7771   4770490.7206   1   8   0.0076   0.0046   0.0096   0.0039   0.0038   0.0067   0.00  140.5    0.00000    0.00000    0.00000   0.00000  0.00000  0.00000  0.00000  0.00000  0.00000
2022/03/25 14:16:21.200   4161062.4719    678805.1615   4770490.5835   1   8   0.0074   0.0044   0.0096   0.0035   0.0038   0.0068   0.00  140.1    0.00000    0.00000    0.00000   0.00000  0.00000  0.00000  0.00000  0.00000  0.00000
2022/03/25 14:16:21.100   4161062.5723    678805.5398   4770490.4411   1   8   0.0074   0.0044   0.0095   0.0034   0.0040   0.0069   0.00  140.8    0.00000    0.00000    0.00000   0.00000  0.00000  0.00000  0.00000  0.00000  0.00000
2022/03/25 14:16:21.000   4161062.6845    678805.9132   4770490.2826   1   8   0.0074   0.0044   0.0096   0.0035   0.0038   0.0068   0.00  140.7    0.00000    0.00000    0.00000   0.00000  0.00000  0.00000  0.00000  0.00000  0.00000
2022/03/25 14:16:20.900   4161062.8148    678806.2745   4770490.1181   1   8   0.0075   0.0046   0.0096   0.0038   0.0037   0.0068   0.00  139.7    0.00000    0.00000    0.00000   0.00000  0.00000  0.00000  0.00000  0.00000  0.00000
2022/03/25 14:16:20.800   4161062.9534    678806.6272   4770489.9573   1   8   0.0072   0.0042   0.0095   0.0034   0.0039   0.0068   0.00  139.3    0.00000    0.00000    0.00000   0.00000  0.00000  0.00000  0.00000  0.00000  0.00000
2022/03/25 14:16:20.700   4161063.0941    678806.9658   4770489.7611   1   8   0.0076   0.0046   0.0096   0.0035   0.0038   0.0069   0.00  140.5    0.00000    0.00000    0.00000   0.00000  0.00000  0.00000  0.00000  0.00000  0.00000
2022/03/25 14:16:20.600   4161063.2511    678807.3022   4770489.5716   1   8   0.0076   0.0046   0.0096   0.0036   0.0040   0.0068   0.00  140.0    0.00000    0.00000    0.00000   0.00000  0.00000  0.00000  0.00000  0.00000  0.00000
2022/03/25 14:16:20.500   4161063.4137    678807.6392   4770489.3940   1   8   0.0072   0.0041   0.0095   0.0033   0.0039   0.0070   0.00  139.4    0.00000    0.00000    0.00000   0.00000  0.00000  0.00000  0.00000  0.00000  0.00000
2022/03/25 14:16:20.400   4161063.5821    678807.9574   4770489.1978   1   8   0.0079   0.0047   0.0096   0.0036   0.0038   0.0068   0.00  136.7    0.00000    0.00000    0.00000   0.00000  0.00000  0.00000  0.00000  0.00000  0.00000
2022/03/25 14:16:20.300   4161063.7660    678808.2590   4770488.9778   1   8   0.0078   0.0047   0.0096   0.0038   0.0036   0.0067   0.00  136.9    0.00000    0.00000    0.00000   0.00000  0.00000  0.00000  0.00000  0.00000  0.00000
2022/03/25 14:16:20.200   4161063.9626    678808.5501   4770488.7509   1   8   0.0074   0.0044   0.0095   0.0036   0.0038   0.0069   0.00  137.1    0.00000    0.00000    0.00000   0.00000  0.00000  0.00000  0.00000  0.00000  0.00000
2022/03/25 14:16:20.100   4161064.1524    678808.8343   4770488.5204   1   8   0.0075   0.0046   0.0096   0.0036   0.0038   0.0068   0.00  138.8    0.00000    0.00000    0.00000   0.00000  0.00000  0.00000  0.00000  0.00000  0.00000
2022/03/25 14:16:20.000   4161064.3570    678809.1016   4770488.2960   1   8   0.0074   0.0043   0.0096   0.0035   0.0038   0.0069   0.00  140.7    0.00000    0.00000    0.00000   0.00000  0.00000  0.00000  0.00000  0.00000  0.00000
2022/03/25 14:16:19.900   4161064.5757    678809.3707   4770488.0915   1   8   0.0072   0.0044   0.0096   0.0034   0.0039   0.0069   0.00  141.3    0.00000    0.00000    0.00000   0.00000  0.00000  0.00000  0.00000  0.00000  0.00000
2022/03/25 14:16:19.800   4161064.8036    678809.6116   4770487.8395   1   8   0.0075   0.0045   0.0096   0.0040   0.0036   0.0068   0.00  142.2    0.00000    0.00000    0.00000   0.00000  0.00000  0.00000  0.00000  0.00000  0.00000
