% program   : RTKPOST ver.demo5 b34d
% inp file  : D:\Amaster\4semester\Satellitenavigation\U2\roverTest2.obs
% inp file  : D:\Amaster\4semester\Satellitenavigation\U2\baseTest2.obs
% inp file  : D:\Amaster\4semester\Satellitenavigation\U2\base.nav
% obs start : 2022/03/25 14:12:28.0 GPST (week2202 483148.0s)
% obs end   : 2022/03/25 14:16:44.8 GPST (week2202 483404.8s)
% pos mode  : Kinematic
% freqs     : L1+L2/E5b
% solution  : Combined-Phase Reset
% elev mask : 5.0 deg
% dynamics  : off
% tidecorr  : off
% ionos opt : OFF
% tropo opt : OFF
% ephemeris : Broadcast
% navi sys  : GPS
% amb res   : Fix and Hold
% val thres : 4.0
% antenna1  :                       ( 0.0000  0.0000  0.0000)
% antenna2  :                       ( 0.0000  0.0000  0.0000)
% ref pos   :  4161163.2044    678675.6669   4770420.4641
%
% (x/y/z-ecef=WGS84,Q=1:fix,2:float,3:sbas,4:dgps,5:single,6:ppp,ns=# of satellites)
%  GPST                      x-ecef(m)      y-ecef(m)      z-ecef(m)   Q  ns   sdx(m)   sdy(m)   sdz(m)  sdxy(m)  sdyz(m)  sdzx(m) age(s)  ratio    vx(m/s)    vy(m/s)    vz(m/s)      sdvx     sdvy     sdvz    sdvxy    sdvyz    sdvzx
2022/03/25 14:12:28.000   4160643.5127    677712.0154   4771039.2112   1   6   0.0107   0.0049   0.0113   0.0025   0.0040   0.0090   0.00    6.0    0.00000    0.00000    0.00000   0.00000  0.00000  0.00000  0.00000  0.00000  0.00000
2022/03/25 14:12:28.100   4160643.5108    677712.0174   4771039.2146   1   6   0.0107   0.0048   0.0113   0.0025   0.0041   0.0089   0.00    5.8    0.00000    0.00000    0.00000   0.00000  0.00000  0.00000  0.00000  0.00000  0.00000
2022/03/25 14:12:28.200   4160643.5091    677712.0173   4771039.2137   1   6   0.0105   0.0047   0.0112   0.0022   0.0042   0.0091   0.00    5.8    0.00000    0.00000    0.00000   0.00000  0.00000  0.00000  0.00000  0.00000  0.00000
2022/03/25 14:12:28.300   4160643.5123    677712.0161   4771039.2148   1   6   0.0106   0.0048   0.0113   0.0022   0.0040   0.0090   0.00    5.8    0.00000    0.00000    0.00000   0.00000  0.00000  0.00000  0.00000  0.00000  0.00000
2022/03/25 14:12:28.400   4160643.5112    677712.0145   4771039.2116   1   6   0.0107   0.0050   0.0113   0.0026   0.0040   0.0090   0.00    5.7    0.00000    0.00000    0.00000   0.00000  0.00000  0.00000  0.00000  0.00000  0.00000
2022/03/25 14:12:28.500   4160643.5068    677712.0146   4771039.2091   1   6   0.0106   0.0050   0.0112   0.0026   0.0039   0.0091   0.00    5.6    0.00000    0.00000    0.00000   0.00000  0.00000  0.00000  0.00000  0.00000  0.00000
2022/03/25 14:12:28.600   4160643.5104    677712.0165   4771039.2122   1   6   0.0105   0.0047   0.0113   0.0023   0.0041   0.0090   0.00    5.5    0.00000    0.00000    0.00000   0.00000  0.00000  0.00000  0.00000  0.00000  0.00000
2022/03/25 14:12:28.700   4160643.5102    677712.0152   4771039.2123   1   6   0.0106   0.0048   0.0112   0.0023   0.0041   0.0091   0.00    5.4    0.00000    0.00000    0.00000   0.00000  0.00000  0.00000  0.00000  0.00000  0.00000
2022/03/25 14:12:28.800   4160643.5111    677712.0149   4771039.2121   1   6   0.0106   0.0048   0.0113   0.0029   0.0040   0.0090   0.00    5.3    0.00000    0.00000    0.00000   0.00000  0.00000  0.00000  0.00000  0.00000  0.00000
2022/03/25 14:12:28.900   4160643.5093    677712.0142   4771039.2128   1   6   0.0106   0.0050   0.0113   0.0027   0.0040   0.0090   0.00    5.2    0.00000    0.00000    0.00000   0.00000  0.00000  0.00000  0.00000  0.00000  0.00000
2022/03/25 14:12:29.000   4160643.5090    677712.0155   4771039.2111   1   6   0.0106   0.0047   0.0112   0.0023   0.0042   0.0091   0.00    5.1    0.00000    0.00000    0.00000   0.00000  0.00000  0.00000  0.00000  0.00000  0.00000
2022/03/25 14:12:29.100   4160643.5059    677712.0174   4771039.2107   1   6   0.0106   0.0049   0.0112   0.0024   0.0040   0.0090   0.00    5.0    0.00000    0.00000    0.00000   0.00000  0.00000  0.00000  0.00000  0.00000  0.00000
2022/03/25 14:12:29.200   4160643.5108    677712.0151   4771039.2130   1   6   0.0105   0.0047   0.0112   0.0024   0.0040   0.0091   0.00    4.9    0.00000    0.00000    0.00000   0.00000  0.00000  0.00000  0.00000  0.00000  0.00000
2022/03/25 14:12:29.300   4160643.5117    677712.0135   4771039.2103   1   6   0.0106   0.0046   0.0112   0.0021   0.0042   0.0091   0.00    4.7    0.00000    0.00000    0.00000   0.00000  0.00000  0.00000  0.00000  0.00000  0.00000
2022/03/25 14:12:29.400   4160643.5079    677712.0158   4771039.2088   1   6   0.0106   0.0047   0.0112   0.0021   0.0042   0.0091   0.00    4.6    0.00000    0.00000    0.00000   0.00000  0.00000  0.00000  0.00000  0.00000  0.00000
2022/03/25 14:12:29.500   4160643.5138    677712.0058   4771039.1861   1   6   0.0106   0.0048   0.0114   0.0019   0.0044   0.0090   0.00   27.7    0.00000    0.00000    0.00000   0.00000  0.00000  0.00000  0.00000  0.00000  0.00000
2022/03/25 14:12:29.600   4160643.5249    677712.0108   4771039.1806   1   6   0.0106   0.0049   0.0114   0.0020   0.0044   0.0089   0.00   28.2    0.00000    0.00000    0.00000   0.00000  0.00000  0.00000  0.00000  0.00000  0.00000
2022/03/25 14:12:29.700   4160643.5344    677712.0190   4771039.1743   1   6   0.0107   0.0049   0.0114   0.0023   0.0043   0.0090   0.00   28.5    0.00000    0.00000    0.00000   0.00000  0.00000  0.00000  0.00000  0.00000  0.00000
2022/03/25 14:12:29.800   4160643.5446    677712.0282   4771039.1615   1   6   0.0106   0.0051   0.0114   0.0025   0.0042   0.0090   0.00   28.8    0.00000    0.00000    0.00000   0.00000  0.00000  0.00000  0.00000  0.00000  0.00000
2022/03/25 14:12:29.900   4160643.5513    677712.0407   4771039.1417   1   6   0.0106   0.0049   0.0114   0.0023   0.0044   0.0090   0.00   29.2    0.00000    0.00000    0.00000   0.00000  0.00000  0.00000  0.00000  0.00000  0.00000
2022/03/25 14:12:30.000   4160643.5625    677712.0606   4771039.1278   1   6   0.0107   0.0047   0.0115   0.0018   0.0045   0.0089   0.00   29.3    0.00000    0.00000    0.00000   0.00000  0.00000  0.00000  0.00000  0.00000  0.00000
2022/03/25 14:12:30.100   4160643.5789    677712.0814   4771039.1084   1   6   0.0106   0.0054   0.0116   0.0025   0.0046   0.0088   0.00   29.2    0.00000    0.00000    0.00000   0.00000  0.00000  0.00000  0.00000  0.00000  0.00000
2022/03/25 14:12:30.200   4160643.5945    677712.1104   4771039.1000   1   6   0.0107   0.0054   0.0120   0.0017   0.0051   0.0086   0.00   29.3    0.00000    0.00000    0.00000   0.00000  0.00000  0.00000  0.00000  0.00000  0.00000
2022/03/25 14:12:30.300   4160643.6188    677712.1361   4771039.0747   1   6   0.0106   0.0050   0.0113   0.0027   0.0040   0.0090   0.00    4.9    0.00000    0.00000    0.00000   0.00000  0.00000  0.00000  0.00000  0.00000  0.00000
2022/03/25 14:12:30.400   4160643.6303    677712.1780   4771039.0535   1   5   0.0107   0.0053   0.0119   0.0013   0.0052   0.0086   0.00   29.9    0.00000    0.00000    0.00000   0.00000  0.00000  0.00000  0.00000  0.00000  0.00000
2022/03/25 14:12:30.500   4160643.6504    677712.2188   4771039.0171   1   5   0.0108   0.0054   0.0120   0.0019   0.0051   0.0086   0.00   30.4    0.00000    0.00000    0.00000   0.00000  0.00000  0.00000  0.00000  0.00000  0.00000
2022/03/25 14:12:30.600   4160643.6781    677712.2649   4771038.9951   1   5   0.0107   0.0052   0.0120   0.0014   0.0051   0.0087   0.00   30.2    0.00000    0.00000    0.00000   0.00000  0.00000  0.00000  0.00000  0.00000  0.00000
2022/03/25 14:12:30.700   4160643.7106    677712.3164   4771038.9394   1   6   0.0107   0.0050   0.0112   0.0030   0.0039   0.0090   0.00    3.4    0.00000    0.00000    0.00000   0.00000  0.00000  0.00000  0.00000  0.00000  0.00000
2022/03/25 14:12:30.800   4160643.7522    677712.3534   4771038.8592   2   6   0.0236   0.0110   0.0251  -0.0118   0.0080   0.0142   0.00    0.0    0.00000    0.00000    0.00000   0.00000  0.00000  0.00000  0.00000  0.00000  0.00000
2022/03/25 14:12:30.900   4160643.7884    677712.4334   4771038.8286   2   6   0.0236   0.0110   0.0251  -0.0118   0.0081   0.0143   0.00    0.0    0.00000    0.00000    0.00000   0.00000  0.00000  0.00000  0.00000  0.00000  0.00000
2022/03/25 14:12:31.000   4160643.8189    677712.5293   4771038.8039   2   6   0.0236   0.0110   0.0251  -0.0118   0.0081   0.0142   0.00    0.0    0.00000    0.00000    0.00000   0.00000  0.00000  0.00000  0.00000  0.00000  0.00000
2022/03/25 14:12:31.100   4160643.8291    677712.6214   4771038.7428   2   6   0.0236   0.0110   0.0251  -0.0118   0.0082   0.0142   0.00    0.0    0.00000    0.00000    0.00000   0.00000  0.00000  0.00000  0.00000  0.00000  0.00000
2022/03/25 14:12:31.200   4160643.8972    677712.7150   4771038.6802   2   6   0.0236   0.0110   0.0251  -0.0118   0.0082   0.0143   0.00    0.0    0.00000    0.00000    0.00000   0.00000  0.00000  0.00000  0.00000  0.00000  0.00000
2022/03/25 14:12:31.300   4160643.9449    677712.8271   4771038.6265   1   6   0.0106   0.0051   0.0113   0.0027   0.0039   0.0090   0.00    5.0    0.00000    0.00000    0.00000   0.00000  0.00000  0.00000  0.00000  0.00000  0.00000
2022/03/25 14:12:31.400   4160643.9795    677712.9616   4771038.5955   1   6   0.0106   0.0053   0.0116   0.0021   0.0046   0.0089   0.00   31.8    0.00000    0.00000    0.00000   0.00000  0.00000  0.00000  0.00000  0.00000  0.00000
2022/03/25 14:12:31.500   4160644.0391    677713.0857   4771038.5237   1   6   0.0106   0.0053   0.0120   0.0018   0.0050   0.0087   0.00   31.0    0.00000    0.00000    0.00000   0.00000  0.00000  0.00000  0.00000  0.00000  0.00000
2022/03/25 14:12:31.600   4160644.0892    677713.2164   4771038.4450   1   5   0.0107   0.0053   0.0120   0.0016   0.0051   0.0087   0.00   30.0    0.00000    0.00000    0.00000   0.00000  0.00000  0.00000  0.00000  0.00000  0.00000
2022/03/25 14:12:31.700   4160644.1408    677713.3704   4771038.3591   1   5   0.0109   0.0055   0.0120   0.0026   0.0049   0.0086   0.00   28.7    0.00000    0.00000    0.00000   0.00000  0.00000  0.00000  0.00000  0.00000  0.00000
2022/03/25 14:12:31.800   4160644.2101    677713.5383   4771038.2848   1   5   0.0107   0.0053   0.0120   0.0015   0.0051   0.0086   0.00   27.5    0.00000    0.00000    0.00000   0.00000  0.00000  0.00000  0.00000  0.00000  0.00000
2022/03/25 14:12:31.900   4160644.2714    677713.7142   4771038.2016   1   5   0.0107   0.0054   0.0120   0.0018   0.0050   0.0086   0.00   27.3    0.00000    0.00000    0.00000   0.00000  0.00000  0.00000  0.00000  0.00000  0.00000
2022/03/25 14:12:32.000   4160644.3588    677713.9152   4771038.1274   1   5   0.0108   0.0053   0.0119   0.0016   0.0051   0.0087   0.00   26.5    0.00000    0.00000    0.00000   0.00000  0.00000  0.00000  0.00000  0.00000  0.00000
2022/03/25 14:12:32.100   4160644.4279    677714.1212   4771038.0154   1   5   0.0106   0.0053   0.0120   0.0016   0.0050   0.0087   0.00   25.2    0.00000    0.00000    0.00000   0.00000  0.00000  0.00000  0.00000  0.00000  0.00000
2022/03/25 14:12:32.200   4160644.4853    677714.3376   4771037.8903   1   5   0.0107   0.0053   0.0120   0.0004   0.0052   0.0087   0.00   24.3    0.00000    0.00000    0.00000   0.00000  0.00000  0.00000  0.00000  0.00000  0.00000
2022/03/25 14:12:32.300   4160644.5549    677714.5881   4771037.8027   1   5   0.0106   0.0051   0.0120   0.0013   0.0051   0.0087   0.00   23.2    0.00000    0.00000    0.00000   0.00000  0.00000  0.00000  0.00000  0.00000  0.00000
2022/03/25 14:12:32.400   4160644.6368    677714.8364   4771037.7078   1   5   0.0107   0.0053   0.0119   0.0017   0.0050   0.0087   0.00   17.5    0.00000    0.00000    0.00000   0.00000  0.00000  0.00000  0.00000  0.00000  0.00000
2022/03/25 14:12:32.500   4160644.7128    677715.1002   4771037.6030   1   5   0.0108   0.0055   0.0119   0.0024   0.0050   0.0086   0.00    4.2    0.00000    0.00000    0.00000   0.00000  0.00000  0.00000  0.00000  0.00000  0.00000
2022/03/25 14:12:32.600   4160644.7795    677715.3703   4771037.4730   1   5   0.0107   0.0055   0.0119   0.0021   0.0050   0.0087   0.00    4.2    0.00000    0.00000    0.00000   0.00000  0.00000  0.00000  0.00000  0.00000  0.00000
2022/03/25 14:12:32.700   4160644.8708    677715.6456   4771037.3421   1   5   0.0107   0.0052   0.0119   0.0014   0.0050   0.0087   0.00    4.1    0.00000    0.00000    0.00000   0.00000  0.00000  0.00000  0.00000  0.00000  0.00000
2022/03/25 14:12:32.800   4160644.9570    677715.9264   4771037.2127   1   5   0.0107   0.0053   0.0120   0.0017   0.0051   0.0086   0.00    4.1    0.00000    0.00000    0.00000   0.00000  0.00000  0.00000  0.00000  0.00000  0.00000
2022/03/25 14:12:32.900   4160645.0409    677716.2201   4771037.0681   1   5   0.0108   0.0056   0.0120   0.0020   0.0050   0.0086   0.00    4.0    0.00000    0.00000    0.00000   0.00000  0.00000  0.00000  0.00000  0.00000  0.00000
2022/03/25 14:12:33.000   4160645.1277    677716.5180   4771036.9157   1   5   0.0107   0.0054   0.0119   0.0015   0.0050   0.0088   0.00    4.0    0.00000    0.00000    0.00000   0.00000  0.00000  0.00000  0.00000  0.00000  0.00000
2022/03/25 14:12:33.100   4160645.2385    677716.8397   4771036.8024   1   5   0.0107   0.0055   0.0120   0.0017   0.0050   0.0086   0.00    3.9    0.00000    0.00000    0.00000   0.00000  0.00000  0.00000  0.00000  0.00000  0.00000
2022/03/25 14:12:33.200   4160645.3331    677717.1632   4771036.6498   1   5   0.0107   0.0054   0.0119   0.0017   0.0050   0.0087   0.00    3.9    0.00000    0.00000    0.00000   0.00000  0.00000  0.00000  0.00000  0.00000  0.00000
2022/03/25 14:12:33.300   4160645.4473    677717.4840   4771036.4785   1   5   0.0106   0.0052   0.0119   0.0014   0.0052   0.0087   0.00    3.9    0.00000    0.00000    0.00000   0.00000  0.00000  0.00000  0.00000  0.00000  0.00000
2022/03/25 14:12:33.400   4160645.5760    677717.8166   4771036.3136   1   5   0.0106   0.0052   0.0120   0.0004   0.0052   0.0087   0.00    3.8    0.00000    0.00000    0.00000   0.00000  0.00000  0.00000  0.00000  0.00000  0.00000
2022/03/25 14:12:33.500   4160645.6966    677718.1525   4771036.1424   1   5   0.0108   0.0053   0.0120   0.0014   0.0051   0.0086   0.00    3.7    0.00000    0.00000    0.00000   0.00000  0.00000  0.00000  0.00000  0.00000  0.00000
2022/03/25 14:12:33.600   4160645.8499    677718.4987   4771035.9762   1   5   0.0108   0.0055   0.0119   0.0020   0.0050   0.0087   0.00    3.7    0.00000    0.00000    0.00000   0.00000  0.00000  0.00000  0.00000  0.00000  0.00000
2022/03/25 14:12:33.700   4160645.9839    677718.8563   4771035.7868   1   5   0.0108   0.0054   0.0120   0.0023   0.0050   0.0086   0.00    3.7    0.00000    0.00000    0.00000   0.00000  0.00000  0.00000  0.00000  0.00000  0.00000
2022/03/25 14:12:33.800   4160646.1359    677719.2177   4771035.6052   1   5   0.0106   0.0054   0.0120   0.0017   0.0050   0.0086   0.00    3.8    0.00000    0.00000    0.00000   0.00000  0.00000  0.00000  0.00000  0.00000  0.00000
2022/03/25 14:12:33.900   4160646.2762    677719.5821   4771035.3856   1   5   0.0107   0.0054   0.0119   0.0016   0.0051   0.0087   0.00    3.8    0.00000    0.00000    0.00000   0.00000  0.00000  0.00000  0.00000  0.00000  0.00000
2022/03/25 14:12:34.000   4160646.4321    677719.9514   4771035.1838   1   5   0.0107   0.0055   0.0120   0.0019   0.0050   0.0086   0.00    3.8    0.00000    0.00000    0.00000   0.00000  0.00000  0.00000  0.00000  0.00000  0.00000
2022/03/25 14:12:34.100   4160646.5974    677720.3169   4771034.9848   1   5   0.0107   0.0053   0.0120   0.0018   0.0051   0.0086   0.00    3.7    0.00000    0.00000    0.00000   0.00000  0.00000  0.00000  0.00000  0.00000  0.00000
2022/03/25 14:12:34.200   4160646.7690    677720.6879   4771034.7624   1   5   0.0107   0.0055   0.0120   0.0016   0.0050   0.0086   0.00    3.4    0.00000    0.00000    0.00000   0.00000  0.00000  0.00000  0.00000  0.00000  0.00000
2022/03/25 14:12:34.300   4160646.9426    677721.0541   4771034.5442   1   5   0.0106   0.0049   0.0119  -0.0008   0.0053   0.0087   0.00    3.4    0.00000    0.00000    0.00000   0.00000  0.00000  0.00000  0.00000  0.00000  0.00000
2022/03/25 14:12:34.400   4160647.1226    677721.4284   4771034.3302   1   5   0.0106   0.0050   0.0113   0.0027   0.0039   0.0090   0.00    3.2    0.00000    0.00000    0.00000   0.00000  0.00000  0.00000  0.00000  0.00000  0.00000
2022/03/25 14:12:34.500   4160647.1808    677721.8342   4771034.0378   2   5   0.2592   0.1208   0.2684   0.0960   0.1225   0.2234   0.00    0.0    0.00000    0.00000    0.00000   0.00000  0.00000  0.00000  0.00000  0.00000  0.00000
2022/03/25 14:12:34.600   4160647.3711    677722.2003   4771033.8166   2   5   0.2592   0.1208   0.2683   0.0960   0.1225   0.2234   0.00    0.0    0.00000    0.00000    0.00000   0.00000  0.00000  0.00000  0.00000  0.00000  0.00000
2022/03/25 14:12:34.700   4160647.5595    677722.5591   4771033.5907   2   5   0.2592   0.1208   0.2683   0.0960   0.1225   0.2234   0.00    0.0    0.00000    0.00000    0.00000   0.00000  0.00000  0.00000  0.00000  0.00000  0.00000
2022/03/25 14:12:34.800   4160647.7598    677722.9121   4771033.3623   2   5   0.2592   0.1208   0.2683   0.0960   0.1225   0.2234   0.00    0.0    0.00000    0.00000    0.00000   0.00000  0.00000  0.00000  0.00000  0.00000  0.00000
2022/03/25 14:12:34.900   4160647.9514    677723.2624   4771033.1170   2   5   0.2592   0.1208   0.2683   0.0960   0.1225   0.2234   0.00    0.0    0.00000    0.00000    0.00000   0.00000  0.00000  0.00000  0.00000  0.00000  0.00000
2022/03/25 14:12:35.000   4160648.1375    677723.6082   4771032.8714   2   5   0.2592   0.1208   0.2682   0.0960   0.1225   0.2234   0.00    0.0    0.00000    0.00000    0.00000   0.00000  0.00000  0.00000  0.00000  0.00000  0.00000
2022/03/25 14:12:35.100   4160648.3478    677723.9570   4771032.6339   2   5   0.2592   0.1208   0.2682   0.0960   0.1225   0.2234   0.00    0.0    0.00000    0.00000    0.00000   0.00000  0.00000  0.00000  0.00000  0.00000  0.00000
2022/03/25 14:12:35.200   4160648.5574    677724.3015   4771032.3873   2   5   0.2592   0.1208   0.2682   0.0960   0.1225   0.2233   0.00    0.0    0.00000    0.00000    0.00000   0.00000  0.00000  0.00000  0.00000  0.00000  0.00000
2022/03/25 14:12:35.300   4160648.7599    677724.6375   4771032.1285   2   5   0.2591   0.1208   0.2682   0.0960   0.1225   0.2233   0.00    0.0    0.00000    0.00000    0.00000   0.00000  0.00000  0.00000  0.00000  0.00000  0.00000
2022/03/25 14:12:35.400   4160648.9669    677724.9957   4771031.9132   2   5   0.2591   0.1208   0.2681   0.0960   0.1225   0.2233   0.00    0.0    0.00000    0.00000    0.00000   0.00000  0.00000  0.00000  0.00000  0.00000  0.00000
2022/03/25 14:12:35.500   4160649.1946    677725.3330   4771031.6779   2   5   0.2591   0.1208   0.2681   0.0960   0.1225   0.2233   0.00    0.0    0.00000    0.00000    0.00000   0.00000  0.00000  0.00000  0.00000  0.00000  0.00000
2022/03/25 14:12:35.600   4160649.4173    677725.6689   4771031.4210   2   5   0.2591   0.1208   0.2681   0.0960   0.1225   0.2233   0.00    0.0    0.00000    0.00000    0.00000   0.00000  0.00000  0.00000  0.00000  0.00000  0.00000
2022/03/25 14:12:35.700   4160649.6289    677726.0105   4771031.1638   2   5   0.2591   0.1208   0.2681   0.0960   0.1225   0.2233   0.00    0.0    0.00000    0.00000    0.00000   0.00000  0.00000  0.00000  0.00000  0.00000  0.00000
2022/03/25 14:12:35.800   4160649.8484    677726.3495   4771030.9259   2   5   0.2591   0.1208   0.2681   0.0960   0.1225   0.2233   0.00    1.4    0.00000    0.00000    0.00000   0.00000  0.00000  0.00000  0.00000  0.00000  0.00000
2022/03/25 14:12:35.900   4160650.1820    677726.6517   4771030.7624   1   5   0.0106   0.0048   0.0112   0.0025   0.0041   0.0090   0.00    3.4    0.00000    0.00000    0.00000   0.00000  0.00000  0.00000  0.00000  0.00000  0.00000
2022/03/25 14:12:36.000   4160650.3810    677726.9612   4771030.4715   1   5   0.0107   0.0052   0.0120   0.0019   0.0050   0.0086   0.00    3.7    0.00000    0.00000    0.00000   0.00000  0.00000  0.00000  0.00000  0.00000  0.00000
2022/03/25 14:12:36.100   4160650.6358    677727.3114   4771030.2338   1   5   0.0106   0.0047   0.0112   0.0024   0.0041   0.0090   0.00    4.2    0.00000    0.00000    0.00000   0.00000  0.00000  0.00000  0.00000  0.00000  0.00000
2022/03/25 14:12:36.200   4160650.8314    677727.6581   4771029.9912   1   5   0.0105   0.0049   0.0112   0.0026   0.0041   0.0091   0.00    4.5    0.00000    0.00000    0.00000   0.00000  0.00000  0.00000  0.00000  0.00000  0.00000
2022/03/25 14:12:36.300   4160650.9772    677727.9378   4771029.6350   1   5   0.0108   0.0055   0.0119   0.0022   0.0050   0.0087   0.00    3.4    0.00000    0.00000    0.00000   0.00000  0.00000  0.00000  0.00000  0.00000  0.00000
2022/03/25 14:12:36.400   4160651.0880    677728.2304   4771029.2924   1   5   0.0106   0.0049   0.0112   0.0026   0.0040   0.0090   0.00    3.5    0.00000    0.00000    0.00000   0.00000  0.00000  0.00000  0.00000  0.00000  0.00000
2022/03/25 14:12:36.500   4160651.4183    677728.7145   4771029.2355   2   5   0.2594   0.1210   0.2682   0.0965   0.1228   0.2235   0.00    2.6    0.00000    0.00000    0.00000   0.00000  0.00000  0.00000  0.00000  0.00000  0.00000
2022/03/25 14:12:36.600   4160651.6079    677729.0608   4771028.9563   2   4   0.2600   0.1213   0.2686   0.0971   0.1233   0.2241   0.00    2.7    0.00000    0.00000    0.00000   0.00000  0.00000  0.00000  0.00000  0.00000  0.00000
2022/03/25 14:12:36.700   4160651.8197    677729.3785   4771028.6869   2   4   0.2600   0.1213   0.2686   0.0971   0.1233   0.2241   0.00    2.7    0.00000    0.00000    0.00000   0.00000  0.00000  0.00000  0.00000  0.00000  0.00000
2022/03/25 14:12:36.800   4160652.0958    677729.7313   4771028.4544   2   5   0.2593   0.1210   0.2681   0.0964   0.1227   0.2234   0.00    2.8    0.00000    0.00000    0.00000   0.00000  0.00000  0.00000  0.00000  0.00000  0.00000
2022/03/25 14:12:36.900   4160652.2820    677730.0634   4771028.1722   2   5   0.2593   0.1210   0.2681   0.0963   0.1227   0.2234   0.00    1.9    0.00000    0.00000    0.00000   0.00000  0.00000  0.00000  0.00000  0.00000  0.00000
2022/03/25 14:12:37.000   4160652.4978    677730.4131   4771027.9235   2   4   0.2602   0.1213   0.2687   0.0974   0.1234   0.2242   0.00    2.9    0.00000    0.00000    0.00000   0.00000  0.00000  0.00000  0.00000  0.00000  0.00000
2022/03/25 14:12:37.100   4160652.7348    677730.7562   4771027.6645   2   4   0.2602   0.1213   0.2687   0.0974   0.1234   0.2242   0.00    2.9    0.00000    0.00000    0.00000   0.00000  0.00000  0.00000  0.00000  0.00000  0.00000
2022/03/25 14:12:37.200   4160652.9708    677731.1036   4771027.4066   2   4   0.2602   0.1213   0.2687   0.0974   0.1234   0.2242   0.00    2.9    0.00000    0.00000    0.00000   0.00000  0.00000  0.00000  0.00000  0.00000  0.00000
2022/03/25 14:12:37.300   4160653.2004    677731.4433   4771027.1587   2   4   0.2602   0.1213   0.2687   0.0974   0.1234   0.2242   0.00    2.9    0.00000    0.00000    0.00000   0.00000  0.00000  0.00000  0.00000  0.00000  0.00000
2022/03/25 14:12:37.400   4160653.4319    677731.7745   4771026.8937   2   4   0.2602   0.1213   0.2686   0.0974   0.1234   0.2242   0.00    3.0    0.00000    0.00000    0.00000   0.00000  0.00000  0.00000  0.00000  0.00000  0.00000
2022/03/25 14:12:37.500   4160653.6361    677732.1129   4771026.6207   2   4   0.2602   0.1213   0.2686   0.0974   0.1234   0.2242   0.00    3.0    0.00000    0.00000    0.00000   0.00000  0.00000  0.00000  0.00000  0.00000  0.00000
2022/03/25 14:12:37.600   4160654.0273    677732.4350   4771026.3828   1   5   0.0171   0.0074   0.0155   0.0090   0.0087   0.0149   0.00    4.3    0.00000    0.00000    0.00000   0.00000  0.00000  0.00000  0.00000  0.00000  0.00000
2022/03/25 14:12:37.700   4160654.2363    677732.7628   4771026.1016   1   5   0.0171   0.0074   0.0154   0.0090   0.0087   0.0150   0.00    4.2    0.00000    0.00000    0.00000   0.00000  0.00000  0.00000  0.00000  0.00000  0.00000
2022/03/25 14:12:37.800   4160654.4762    677733.1146   4771025.8482   1   5   0.0171   0.0073   0.0155   0.0090   0.0087   0.0149   0.00    4.2    0.00000    0.00000    0.00000   0.00000  0.00000  0.00000  0.00000  0.00000  0.00000
2022/03/25 14:12:37.900   4160654.7119    677733.4634   4771025.5892   1   5   0.0170   0.0073   0.0154   0.0090   0.0087   0.0150   0.00    4.3    0.00000    0.00000    0.00000   0.00000  0.00000  0.00000  0.00000  0.00000  0.00000
2022/03/25 14:12:38.000   4160654.9235    677733.8029   4771025.3147   1   5   0.0171   0.0074   0.0154   0.0090   0.0087   0.0150   0.00    4.3    0.00000    0.00000    0.00000   0.00000  0.00000  0.00000  0.00000  0.00000  0.00000
2022/03/25 14:12:38.100   4160655.1541    677734.1495   4771025.0483   1   5   0.0171   0.0074   0.0155   0.0090   0.0087   0.0149   0.00    4.3    0.00000    0.00000    0.00000   0.00000  0.00000  0.00000  0.00000  0.00000  0.00000
2022/03/25 14:12:38.200   4160655.4072    677734.5214   4771024.7888   1   5   0.0171   0.0074   0.0154   0.0090   0.0087   0.0149   0.00    4.4    0.00000    0.00000    0.00000   0.00000  0.00000  0.00000  0.00000  0.00000  0.00000
2022/03/25 14:12:38.300   4160655.6185    677734.8487   4771024.5167   1   5   0.0171   0.0074   0.0154   0.0090   0.0087   0.0149   0.00    4.3    0.00000    0.00000    0.00000   0.00000  0.00000  0.00000  0.00000  0.00000  0.00000
2022/03/25 14:12:38.400   4160655.8498    677735.2012   4771024.2436   1   5   0.0171   0.0074   0.0154   0.0090   0.0087   0.0149   0.00    4.4    0.00000    0.00000    0.00000   0.00000  0.00000  0.00000  0.00000  0.00000  0.00000
2022/03/25 14:12:38.500   4160656.0971    677735.5552   4771023.9913   1   5   0.0171   0.0074   0.0155   0.0090   0.0087   0.0149   0.00    4.4    0.00000    0.00000    0.00000   0.00000  0.00000  0.00000  0.00000  0.00000  0.00000
2022/03/25 14:12:38.600   4160656.3294    677735.9038   4771023.7215   1   5   0.0171   0.0073   0.0154   0.0090   0.0087   0.0150   0.00    4.5    0.00000    0.00000    0.00000   0.00000  0.00000  0.00000  0.00000  0.00000  0.00000
2022/03/25 14:12:38.700   4160656.5570    677736.2528   4771023.4549   1   5   0.0171   0.0074   0.0155   0.0090   0.0087   0.0149   0.00    4.6    0.00000    0.00000    0.00000   0.00000  0.00000  0.00000  0.00000  0.00000  0.00000
2022/03/25 14:12:38.800   4160656.8000    677736.5987   4771023.1874   1   5   0.0171   0.0074   0.0154   0.0089   0.0087   0.0149   0.00    4.6    0.00000    0.00000    0.00000   0.00000  0.00000  0.00000  0.00000  0.00000  0.00000
2022/03/25 14:12:38.900   4160657.0289    677736.9476   4771022.9129   1   5   0.0171   0.0074   0.0155   0.0090   0.0087   0.0149   0.00    4.9    0.00000    0.00000    0.00000   0.00000  0.00000  0.00000  0.00000  0.00000  0.00000
2022/03/25 14:12:39.000   4160657.2742    677737.3140   4771022.6611   1   5   0.0169   0.0067   0.0143   0.0085   0.0075   0.0143   0.00    4.4    0.00000    0.00000    0.00000   0.00000  0.00000  0.00000  0.00000  0.00000  0.00000
2022/03/25 14:12:39.100   4160657.5173    677737.6649   4771022.3961   1   5   0.0168   0.0068   0.0143   0.0085   0.0076   0.0143   0.00    4.5    0.00000    0.00000    0.00000   0.00000  0.00000  0.00000  0.00000  0.00000  0.00000
2022/03/25 14:12:39.200   4160657.7378    677738.0008   4771022.1097   1   5   0.0168   0.0067   0.0143   0.0085   0.0076   0.0143   0.00    4.9    0.00000    0.00000    0.00000   0.00000  0.00000  0.00000  0.00000  0.00000  0.00000
2022/03/25 14:12:39.300   4160657.9879    677738.3586   4771021.8421   1   5   0.0168   0.0066   0.0143   0.0084   0.0076   0.0143   0.00    5.0    0.00000    0.00000    0.00000   0.00000  0.00000  0.00000  0.00000  0.00000  0.00000
2022/03/25 14:12:39.400   4160658.2414    677738.7236   4771021.5995   1   5   0.0168   0.0067   0.0143   0.0085   0.0075   0.0143   0.00    4.6    0.00000    0.00000    0.00000   0.00000  0.00000  0.00000  0.00000  0.00000  0.00000
2022/03/25 14:12:39.500   4160658.4911    677739.0923   4771021.3466   1   5   0.0168   0.0066   0.0142   0.0084   0.0076   0.0144   0.00    4.3    0.00000    0.00000    0.00000   0.00000  0.00000  0.00000  0.00000  0.00000  0.00000
2022/03/25 14:12:39.600   4160658.7615    677739.4671   4771021.1314   1   5   0.0168   0.0067   0.0143   0.0085   0.0075   0.0143   0.00   16.5    0.00000    0.00000    0.00000   0.00000  0.00000  0.00000  0.00000  0.00000  0.00000
2022/03/25 14:12:39.700   4160659.0314    677739.8515   4771020.9118   1   5   0.0171   0.0074   0.0155   0.0089   0.0087   0.0149   0.00    7.6    0.00000    0.00000    0.00000   0.00000  0.00000  0.00000  0.00000  0.00000  0.00000
2022/03/25 14:12:39.800   4160659.1800    677740.1131   4771020.4675   1   4   0.0170   0.0074   0.0154   0.0090   0.0086   0.0149   0.00   12.0    0.00000    0.00000    0.00000   0.00000  0.00000  0.00000  0.00000  0.00000  0.00000
2022/03/25 14:12:39.900   4160659.3989    677740.4624   4771020.1745   1   4   0.0178   0.0090   0.0182   0.0103   0.0112   0.0164   0.00   36.4    0.00000    0.00000    0.00000   0.00000  0.00000  0.00000  0.00000  0.00000  0.00000
2022/03/25 14:12:40.000   4160659.6793    677740.8419   4771019.9485   1   4   0.0171   0.0074   0.0155   0.0090   0.0086   0.0149   0.00    5.7    0.00000    0.00000    0.00000   0.00000  0.00000  0.00000  0.00000  0.00000  0.00000
2022/03/25 14:12:40.100   4160659.9543    677741.2269   4771019.7307   2   4   0.0361   0.0244   0.0423   0.0206   0.0246   0.0332   0.00    1.3    0.00000    0.00000    0.00000   0.00000  0.00000  0.00000  0.00000  0.00000  0.00000
2022/03/25 14:12:40.200   4160660.1295    677741.5337   4771019.3831   2   4   0.0363   0.0247   0.0430   0.0210   0.0253   0.0336   0.00    3.1    0.00000    0.00000    0.00000   0.00000  0.00000  0.00000  0.00000  0.00000  0.00000
2022/03/25 14:12:40.300   4160660.3722    677741.8650   4771019.0854   1   4   0.0177   0.0090   0.0182   0.0103   0.0112   0.0164   0.00   36.1    0.00000    0.00000    0.00000   0.00000  0.00000  0.00000  0.00000  0.00000  0.00000
2022/03/25 14:12:40.400   4160660.6313    677742.2315   4771018.8375   1   4   0.0177   0.0090   0.0182   0.0103   0.0112   0.0164   0.00   35.9    0.00000    0.00000    0.00000   0.00000  0.00000  0.00000  0.00000  0.00000  0.00000
2022/03/25 14:12:40.500   4160660.8779    677742.5736   4771018.5717   1   4   0.0177   0.0090   0.0182   0.0103   0.0112   0.0164   0.00   35.4    0.00000    0.00000    0.00000   0.00000  0.00000  0.00000  0.00000  0.00000  0.00000
2022/03/25 14:12:40.600   4160661.1093    677742.9151   4771018.3123   1   5   0.0178   0.0090   0.0182   0.0103   0.0112   0.0164   0.00   35.0    0.00000    0.00000    0.00000   0.00000  0.00000  0.00000  0.00000  0.00000  0.00000
2022/03/25 14:12:40.700   4160661.3403    677743.2486   4771018.0344   1   5   0.0152   0.0077   0.0159   0.0079   0.0092   0.0137   0.00   34.8    0.00000    0.00000    0.00000   0.00000  0.00000  0.00000  0.00000  0.00000  0.00000
2022/03/25 14:12:40.800   4160661.5815    677743.5897   4771017.7602   1   5   0.0123   0.0062   0.0133   0.0047   0.0066   0.0105   0.00    7.3    0.00000    0.00000    0.00000   0.00000  0.00000  0.00000  0.00000  0.00000  0.00000
2022/03/25 14:12:40.900   4160661.8340    677743.9438   4771017.4793   1   5   0.0123   0.0062   0.0133   0.0046   0.0066   0.0105   0.00    9.6    0.00000    0.00000    0.00000   0.00000  0.00000  0.00000  0.00000  0.00000  0.00000
2022/03/25 14:12:41.000   4160662.0994    677744.2979   4771017.2030   1   5   0.0123   0.0062   0.0133   0.0047   0.0066   0.0105   0.00   11.9    0.00000    0.00000    0.00000   0.00000  0.00000  0.00000  0.00000  0.00000  0.00000
2022/03/25 14:12:41.100   4160662.3469    677744.6449   4771016.9166   1   5   0.0123   0.0062   0.0133   0.0046   0.0066   0.0104   0.00   13.6    0.00000    0.00000    0.00000   0.00000  0.00000  0.00000  0.00000  0.00000  0.00000
2022/03/25 14:12:41.200   4160662.6179    677744.9942   4771016.6439   1   5   0.0123   0.0062   0.0133   0.0046   0.0066   0.0105   0.00   15.4    0.00000    0.00000    0.00000   0.00000  0.00000  0.00000  0.00000  0.00000  0.00000
2022/03/25 14:12:41.300   4160662.8735    677745.3408   4771016.3726   1   5   0.0123   0.0062   0.0133   0.0047   0.0066   0.0104   0.00   17.0    0.00000    0.00000    0.00000   0.00000  0.00000  0.00000  0.00000  0.00000  0.00000
2022/03/25 14:12:41.400   4160663.1223    677745.6739   4771016.0754   1   5   0.0123   0.0063   0.0133   0.0047   0.0066   0.0105   0.00   18.6    0.00000    0.00000    0.00000   0.00000  0.00000  0.00000  0.00000  0.00000  0.00000
2022/03/25 14:12:41.500   4160663.3882    677746.0120   4771015.7886   1   5   0.0123   0.0062   0.0133   0.0047   0.0066   0.0105   0.00   19.8    0.00000    0.00000    0.00000   0.00000  0.00000  0.00000  0.00000  0.00000  0.00000
2022/03/25 14:12:41.600   4160663.6852    677746.3679   4771015.5205   1   5   0.0123   0.0061   0.0133   0.0044   0.0067   0.0105   0.00   19.9    0.00000    0.00000    0.00000   0.00000  0.00000  0.00000  0.00000  0.00000  0.00000
2022/03/25 14:12:41.700   4160663.9695    677746.7348   4771015.2187   1   5   0.0123   0.0062   0.0133   0.0048   0.0066   0.0105   0.00   18.8    0.00000    0.00000    0.00000   0.00000  0.00000  0.00000  0.00000  0.00000  0.00000
2022/03/25 14:12:41.800   4160664.2531    677747.0862   4771014.9208   1   6   0.0122   0.0055   0.0124   0.0048   0.0056   0.0107   0.00    5.6    0.00000    0.00000    0.00000   0.00000  0.00000  0.00000  0.00000  0.00000  0.00000
2022/03/25 14:12:41.900   4160664.5739    677747.4583   4771014.6405   1   6   0.0123   0.0058   0.0124   0.0049   0.0055   0.0106   0.00    7.7    0.00000    0.00000    0.00000   0.00000  0.00000  0.00000  0.00000  0.00000  0.00000
2022/03/25 14:12:42.000   4160664.8835    677747.8186   4771014.3521   1   6   0.0123   0.0056   0.0124   0.0050   0.0055   0.0106   0.00    8.4    0.00000    0.00000    0.00000   0.00000  0.00000  0.00000  0.00000  0.00000  0.00000
2022/03/25 14:12:42.100   4160665.1747    677748.1951   4771014.0330   1   6   0.0122   0.0056   0.0124   0.0048   0.0056   0.0107   0.00    8.0    0.00000    0.00000    0.00000   0.00000  0.00000  0.00000  0.00000  0.00000  0.00000
2022/03/25 14:12:42.200   4160665.3898    677748.5258   4771013.6324   1   5   0.0171   0.0075   0.0155   0.0090   0.0087   0.0149   0.00   24.3    0.00000    0.00000    0.00000   0.00000  0.00000  0.00000  0.00000  0.00000  0.00000
2022/03/25 14:12:42.300   4160665.6698    677748.8875   4771013.2914   1   5   0.0171   0.0074   0.0155   0.0090   0.0087   0.0149   0.00   29.4    0.00000    0.00000    0.00000   0.00000  0.00000  0.00000  0.00000  0.00000  0.00000
2022/03/25 14:12:42.400   4160665.9753    677749.2594   4771012.9603   1   5   0.0171   0.0074   0.0154   0.0090   0.0087   0.0149   0.00   34.0    0.00000    0.00000    0.00000   0.00000  0.00000  0.00000  0.00000  0.00000  0.00000
2022/03/25 14:12:42.500   4160666.2731    677749.6345   4771012.6381   1   5   0.0170   0.0073   0.0154   0.0090   0.0087   0.0149   0.00   36.5    0.00000    0.00000    0.00000   0.00000  0.00000  0.00000  0.00000  0.00000  0.00000
2022/03/25 14:12:42.600   4160666.6011    677750.0332   4771012.3667   1   5   0.0171   0.0075   0.0154   0.0091   0.0086   0.0149   0.00   41.7    0.00000    0.00000    0.00000   0.00000  0.00000  0.00000  0.00000  0.00000  0.00000
2022/03/25 14:12:42.700   4160666.9055    677750.4069   4771012.0343   1   5   0.0171   0.0074   0.0154   0.0090   0.0087   0.0149   0.00   44.2    0.00000    0.00000    0.00000   0.00000  0.00000  0.00000  0.00000  0.00000  0.00000
2022/03/25 14:12:42.800   4160667.2386    677750.7900   4771011.7071   1   5   0.0170   0.0073   0.0154   0.0090   0.0087   0.0150   0.00   42.4    0.00000    0.00000    0.00000   0.00000  0.00000  0.00000  0.00000  0.00000  0.00000
2022/03/25 14:12:42.900   4160667.5179    677751.1469   4771011.3028   1   5   0.0177   0.0090   0.0182   0.0103   0.0112   0.0163   0.00   36.6    0.00000    0.00000    0.00000   0.00000  0.00000  0.00000  0.00000  0.00000  0.00000
2022/03/25 14:12:43.000   4160667.8542    677751.5228   4771010.9584   1   4   0.0177   0.0090   0.0182   0.0102   0.0112   0.0163   0.00   36.2    0.00000    0.00000    0.00000   0.00000  0.00000  0.00000  0.00000  0.00000  0.00000
2022/03/25 14:12:43.100   4160668.1823    677751.9181   4771010.6196   1   4   0.0177   0.0090   0.0182   0.0102   0.0112   0.0164   0.00   36.7    0.00000    0.00000    0.00000   0.00000  0.00000  0.00000  0.00000  0.00000  0.00000
2022/03/25 14:12:43.200   4160668.4946    677752.3073   4771010.2688   1   4   0.0177   0.0090   0.0182   0.0103   0.0112   0.0164   0.00   37.0    0.00000    0.00000    0.00000   0.00000  0.00000  0.00000  0.00000  0.00000  0.00000
2022/03/25 14:12:43.300   4160668.8152    677752.6690   4771009.8980   1   4   0.0177   0.0090   0.0182   0.0103   0.0112   0.0164   0.00   37.2    0.00000    0.00000    0.00000   0.00000  0.00000  0.00000  0.00000  0.00000  0.00000
2022/03/25 14:12:43.400   4160669.1737    677753.0561   4771009.5497   1   4   0.0177   0.0090   0.0182   0.0102   0.0112   0.0163   0.00   36.6    0.00000    0.00000    0.00000   0.00000  0.00000  0.00000  0.00000  0.00000  0.00000
2022/03/25 14:12:43.500   4160669.4919    677753.4169   4771009.1955   1   4   0.0177   0.0090   0.0182   0.0103   0.0112   0.0164   0.00   37.3    0.00000    0.00000    0.00000   0.00000  0.00000  0.00000  0.00000  0.00000  0.00000
2022/03/25 14:12:43.600   4160669.7766    677753.7685   4771008.7746   1   5   0.0174   0.0083   0.0169   0.0097   0.0099   0.0156   0.00   37.3    0.00000    0.00000    0.00000   0.00000  0.00000  0.00000  0.00000  0.00000  0.00000
2022/03/25 14:12:43.700   4160670.1421    677754.1653   4771008.4687   1   4   0.0177   0.0091   0.0182   0.0103   0.0112   0.0163   0.00   37.9    0.00000    0.00000    0.00000   0.00000  0.00000  0.00000  0.00000  0.00000  0.00000
2022/03/25 14:12:43.800   4160670.4927    677754.5408   4771008.1035   1   4   0.0177   0.0090   0.0182   0.0103   0.0112   0.0164   0.00   38.1    0.00000    0.00000    0.00000   0.00000  0.00000  0.00000  0.00000  0.00000  0.00000
2022/03/25 14:12:43.900   4160670.8485    677754.9128   4771007.7292   1   4   0.0177   0.0090   0.0182   0.0103   0.0112   0.0163   0.00   37.4    0.00000    0.00000    0.00000   0.00000  0.00000  0.00000  0.00000  0.00000  0.00000
2022/03/25 14:12:44.000   4160671.1932    677755.2767   4771007.3638   1   4   0.0178   0.0089   0.0181   0.0103   0.0112   0.0164   0.00   37.2    0.00000    0.00000    0.00000   0.00000  0.00000  0.00000  0.00000  0.00000  0.00000
2022/03/25 14:12:44.100   4160671.5161    677755.6417   4771006.9915   1   4   0.0177   0.0090   0.0182   0.0102   0.0112   0.0164   0.00   38.1    0.00000    0.00000    0.00000   0.00000  0.00000  0.00000  0.00000  0.00000  0.00000
2022/03/25 14:12:44.200   4160671.8741    677755.9846   4771006.6079   1   4   0.0177   0.0091   0.0182   0.0104   0.0111   0.0164   0.00   36.2    0.00000    0.00000    0.00000   0.00000  0.00000  0.00000  0.00000  0.00000  0.00000
2022/03/25 14:12:44.300   4160672.2149    677756.3455   4771006.2405   1   5   0.0177   0.0090   0.0182   0.0103   0.0112   0.0164   0.00   36.5    0.00000    0.00000    0.00000   0.00000  0.00000  0.00000  0.00000  0.00000  0.00000
2022/03/25 14:12:44.400   4160672.5936    677756.7227   4771005.8989   1   4   0.0177   0.0090   0.0181   0.0102   0.0112   0.0164   0.00   36.7    0.00000    0.00000    0.00000   0.00000  0.00000  0.00000  0.00000  0.00000  0.00000
2022/03/25 14:12:44.500   4160672.9427    677757.0589   4771005.5121   1   4   0.0177   0.0091   0.0182   0.0103   0.0112   0.0163   0.00   37.0    0.00000    0.00000    0.00000   0.00000  0.00000  0.00000  0.00000  0.00000  0.00000
2022/03/25 14:12:44.600   4160673.3000    677757.4268   4771005.1608   1   4   0.0177   0.0091   0.0182   0.0103   0.0111   0.0164   0.00   38.5    0.00000    0.00000    0.00000   0.00000  0.00000  0.00000  0.00000  0.00000  0.00000
2022/03/25 14:12:44.700   4160673.6705    677757.7843   4771004.7752   1   4   0.0177   0.0090   0.0181   0.0103   0.0112   0.0164   0.00   37.8    0.00000    0.00000    0.00000   0.00000  0.00000  0.00000  0.00000  0.00000  0.00000
2022/03/25 14:12:44.800   4160674.0137    677758.1123   4771004.3766   1   4   0.0177   0.0089   0.0182   0.0102   0.0112   0.0163   0.00   38.7    0.00000    0.00000    0.00000   0.00000  0.00000  0.00000  0.00000  0.00000  0.00000
2022/03/25 14:12:44.900   4160674.3616    677758.4477   4771003.9832   1   4   0.0177   0.0090   0.0181   0.0103   0.0112   0.0164   0.00   38.0    0.00000    0.00000    0.00000   0.00000  0.00000  0.00000  0.00000  0.00000  0.00000
2022/03/25 14:12:45.000   4160674.7063    677758.7655   4771003.5734   1   4   0.0177   0.0090   0.0182   0.0103   0.0112   0.0163   0.00   38.8    0.00000    0.00000    0.00000   0.00000  0.00000  0.00000  0.00000  0.00000  0.00000
2022/03/25 14:12:45.100   4160675.0643    677759.1092   4771003.1989   1   4   0.0177   0.0091   0.0182   0.0103   0.0112   0.0164   0.00   38.9    0.00000    0.00000    0.00000   0.00000  0.00000  0.00000  0.00000  0.00000  0.00000
2022/03/25 14:12:45.200   4160675.4789    677759.4577   4771002.8523   1   4   0.0177   0.0090   0.0181   0.0103   0.0112   0.0164   0.00   37.6    0.00000    0.00000    0.00000   0.00000  0.00000  0.00000  0.00000  0.00000  0.00000
2022/03/25 14:12:45.300   4160675.8375    677759.7980   4771002.4692   1   4   0.0177   0.0090   0.0182   0.0103   0.0112   0.0163   0.00   37.3    0.00000    0.00000    0.00000   0.00000  0.00000  0.00000  0.00000  0.00000  0.00000
2022/03/25 14:12:45.400   4160676.2242    677760.1328   4771002.0945   1   4   0.0177   0.0090   0.0181   0.0103   0.0112   0.0164   0.00   38.2    0.00000    0.00000    0.00000   0.00000  0.00000  0.00000  0.00000  0.00000  0.00000
2022/03/25 14:12:45.500   4160676.5976    677760.4547   4771001.7159   1   4   0.0177   0.0090   0.0181   0.0103   0.0112   0.0164   0.00   38.6    0.00000    0.00000    0.00000   0.00000  0.00000  0.00000  0.00000  0.00000  0.00000
2022/03/25 14:12:45.600   4160676.9827    677760.7828   4771001.3532   1   4   0.0177   0.0090   0.0182   0.0103   0.0112   0.0164   0.00   38.4    0.00000    0.00000    0.00000   0.00000  0.00000  0.00000  0.00000  0.00000  0.00000
2022/03/25 14:12:45.700   4160677.3530    677761.1237   4771000.9630   1   4   0.0177   0.0090   0.0181   0.0103   0.0112   0.0164   0.00   37.7    0.00000    0.00000    0.00000   0.00000  0.00000  0.00000  0.00000  0.00000  0.00000
2022/03/25 14:12:45.800   4160677.7116    677761.4666   4771000.5613   1   4   0.0177   0.0090   0.0181   0.0103   0.0112   0.0164   0.00   37.1    0.00000    0.00000    0.00000   0.00000  0.00000  0.00000  0.00000  0.00000  0.00000
2022/03/25 14:12:45.900   4160678.0673    677761.7833   4771000.1515   1   4   0.0177   0.0090   0.0182   0.0103   0.0112   0.0164   0.00   36.1    0.00000    0.00000    0.00000   0.00000  0.00000  0.00000  0.00000  0.00000  0.00000
2022/03/25 14:12:46.000   4160678.4254    677762.0932   4770999.7392   1   5   0.0177   0.0089   0.0182   0.0103   0.0112   0.0163   0.00   35.1    0.00000    0.00000    0.00000   0.00000  0.00000  0.00000  0.00000  0.00000  0.00000
2022/03/25 14:12:46.100   4160678.8003    677762.4073   4770999.3508   1   5   0.0174   0.0082   0.0168   0.0096   0.0100   0.0156   0.00   34.5    0.00000    0.00000    0.00000   0.00000  0.00000  0.00000  0.00000  0.00000  0.00000
2022/03/25 14:12:46.200   4160679.1994    677762.7520   4770999.0023   1   5   0.0171   0.0075   0.0154   0.0090   0.0087   0.0149   0.00    6.6    0.00000    0.00000    0.00000   0.00000  0.00000  0.00000  0.00000  0.00000  0.00000
2022/03/25 14:12:46.300   4160679.6158    677763.0695   4770998.6325   1   5   0.0171   0.0074   0.0154   0.0091   0.0086   0.0149   0.00    9.6    0.00000    0.00000    0.00000   0.00000  0.00000  0.00000  0.00000  0.00000  0.00000
2022/03/25 14:12:46.400   4160679.9809    677763.3844   4770998.2319   1   5   0.0170   0.0074   0.0154   0.0090   0.0087   0.0149   0.00   12.5    0.00000    0.00000    0.00000   0.00000  0.00000  0.00000  0.00000  0.00000  0.00000
2022/03/25 14:12:46.500   4160680.3834    677763.7069   4770997.8526   1   5   0.0170   0.0074   0.0154   0.0090   0.0087   0.0149   0.00   15.9    0.00000    0.00000    0.00000   0.00000  0.00000  0.00000  0.00000  0.00000  0.00000
2022/03/25 14:12:46.600   4160680.7536    677764.0338   4770997.4589   1   5   0.0170   0.0074   0.0154   0.0090   0.0087   0.0148   0.00   16.8    0.00000    0.00000    0.00000   0.00000  0.00000  0.00000  0.00000  0.00000  0.00000
2022/03/25 14:12:46.700   4160681.1224    677764.3269   4770997.0425   1   5   0.0177   0.0090   0.0182   0.0102   0.0112   0.0163   0.00   36.0    0.00000    0.00000    0.00000   0.00000  0.00000  0.00000  0.00000  0.00000  0.00000
2022/03/25 14:12:46.800   4160681.4964    677764.6260   4770996.6325   1   4   0.0177   0.0090   0.0182   0.0103   0.0112   0.0163   0.00   35.0    0.00000    0.00000    0.00000   0.00000  0.00000  0.00000  0.00000  0.00000  0.00000
2022/03/25 14:12:46.900   4160681.8616    677764.9382   4770996.2452   1   4   0.0177   0.0091   0.0182   0.0103   0.0112   0.0164   0.00   34.6    0.00000    0.00000    0.00000   0.00000  0.00000  0.00000  0.00000  0.00000  0.00000
2022/03/25 14:12:47.000   4160682.2155    677765.2369   4770995.8137   2   4   0.3118   0.0801   0.4082   0.1573   0.1801   0.3566   0.00    0.0    0.00000    0.00000    0.00000   0.00000  0.00000  0.00000  0.00000  0.00000  0.00000
2022/03/25 14:12:47.100   4160682.5975    677765.5492   4770995.4192   2   4   0.3118   0.0801   0.4082   0.1573   0.1801   0.3566   0.00    0.0    0.00000    0.00000    0.00000   0.00000  0.00000  0.00000  0.00000  0.00000  0.00000
2022/03/25 14:12:47.200   4160682.9898    677765.8580   4770995.0429   2   4   0.3118   0.0801   0.4082   0.1573   0.1801   0.3566   0.00    0.0    0.00000    0.00000    0.00000   0.00000  0.00000  0.00000  0.00000  0.00000  0.00000
2022/03/25 14:12:47.300   4160683.3620    677766.1571   4770994.6516   2   4   0.3117   0.0801   0.4082   0.1573   0.1801   0.3566   0.00    0.0    0.00000    0.00000    0.00000   0.00000  0.00000  0.00000  0.00000  0.00000  0.00000
2022/03/25 14:12:47.400   4160683.7689    677766.2045   4770993.8803   2   4   0.3114   0.7096   1.1089   0.1506   0.8715   0.3520   0.00    0.0    0.00000    0.00000    0.00000   0.00000  0.00000  0.00000  0.00000  0.00000  0.00000
2022/03/25 14:12:47.500   4160684.1375    677766.4891   4770993.4897   2   4   0.3114   0.7096   1.1089   0.1504   0.8714   0.3519   0.00    0.0    0.00000    0.00000    0.00000   0.00000  0.00000  0.00000  0.00000  0.00000  0.00000
2022/03/25 14:12:47.600   4160684.5193    677766.8642   4770993.2341   2   4   0.3114   0.7096   1.1088   0.1503   0.8714   0.3518   0.00    0.0    0.00000    0.00000    0.00000   0.00000  0.00000  0.00000  0.00000  0.00000  0.00000
2022/03/25 14:12:47.700   4160684.8989    677767.1189   4770992.7996   2   4   0.3113   0.7096   1.1088   0.1502   0.8714   0.3517   0.00    0.0    0.00000    0.00000    0.00000   0.00000  0.00000  0.00000  0.00000  0.00000  0.00000
2022/03/25 14:12:47.800   4160685.2712    677767.3279   4770992.3019   2   4   0.3113   0.7096   1.1088   0.1500   0.8714   0.3516   0.00    0.0    0.00000    0.00000    0.00000   0.00000  0.00000  0.00000  0.00000  0.00000  0.00000
2022/03/25 14:12:47.900   4160685.6616    677767.4156   4770991.6049   2   4   0.3118   1.1778   1.7818   0.1969   1.4389   0.3844   0.00    0.0    0.00000    0.00000    0.00000   0.00000  0.00000  0.00000  0.00000  0.00000  0.00000
2022/03/25 14:12:48.000   4160686.0339    677768.1927   4770991.9262   2   4   0.3116   0.0803   0.4079   0.1573   0.1800   0.3565   0.00    0.0    0.00000    0.00000    0.00000   0.00000  0.00000  0.00000  0.00000  0.00000  0.00000
2022/03/25 14:12:48.100   4160686.4531    677768.4660   4770991.5286   2   4   0.3116   0.0802   0.4079   0.1573   0.1800   0.3564   0.00    0.0    0.00000    0.00000    0.00000   0.00000  0.00000  0.00000  0.00000  0.00000  0.00000
2022/03/25 14:12:48.200   4160686.8552    677768.7924   4770991.1839   2   4   0.3116   0.0802   0.4079   0.1573   0.1800   0.3564   0.00    0.0    0.00000    0.00000    0.00000   0.00000  0.00000  0.00000  0.00000  0.00000  0.00000
2022/03/25 14:12:48.300   4160687.2244    677769.0382   4770990.7571   2   4   0.3116   0.0802   0.4079   0.1573   0.1800   0.3564   0.00    0.0    0.00000    0.00000    0.00000   0.00000  0.00000  0.00000  0.00000  0.00000  0.00000
2022/03/25 14:12:48.400   4160687.6275    677769.3523   4770990.3938   2   4   0.3115   0.0803   0.4079   0.1573   0.1800   0.3564   0.00    0.0    0.00000    0.00000    0.00000   0.00000  0.00000  0.00000  0.00000  0.00000  0.00000
2022/03/25 14:12:48.500   4160688.0377    677769.6499   4770990.0296   2   4   1.3686   1.4695   1.0888   1.4072   1.2303   1.2134   0.00    0.0    0.00000    0.00000    0.00000   0.00000  0.00000  0.00000  0.00000  0.00000  0.00000
2022/03/25 14:12:48.900   4160689.5729    677770.6967   4770988.4789   2   4   0.3115   0.0796   0.4079   0.1572   0.1798   0.3563   0.00    0.0    0.00000    0.00000    0.00000   0.00000  0.00000  0.00000  0.00000  0.00000  0.00000
2022/03/25 14:12:49.000   4160689.8848    677770.8709   4770988.0339   2   4   0.3113   0.0796   0.4076   0.1571   0.1797   0.3561   0.00    0.0    0.00000    0.00000    0.00000   0.00000  0.00000  0.00000  0.00000  0.00000  0.00000
2022/03/25 14:12:49.600   4160692.1947    677772.4580   4770985.7397   2   4   0.3113   0.0796   0.4077   0.1571   0.1798   0.3562   0.00    0.0    0.00000    0.00000    0.00000   0.00000  0.00000  0.00000  0.00000  0.00000  0.00000
2022/03/25 14:12:49.700   4160692.5494    677772.6829   4770985.3172   2   4   0.3113   0.0796   0.4077   0.1571   0.1798   0.3562   0.00    0.0    0.00000    0.00000    0.00000   0.00000  0.00000  0.00000  0.00000  0.00000  0.00000
2022/03/25 14:12:49.800   4160692.9466    677772.9266   4770984.9393   2   5   0.3110   0.0794   0.4073   0.1570   0.1796   0.3559   0.00    0.0    0.00000    0.00000    0.00000   0.00000  0.00000  0.00000  0.00000  0.00000  0.00000
2022/03/25 14:12:49.900   4160693.3174    677773.1743   4770984.5460   2   5   0.3110   0.0794   0.4073   0.1570   0.1796   0.3558   0.00    0.0    0.00000    0.00000    0.00000   0.00000  0.00000  0.00000  0.00000  0.00000  0.00000
2022/03/25 14:12:50.000   4160693.7289    677773.4231   4770984.1902   2   5   0.3110   0.0794   0.4073   0.1569   0.1796   0.3558   0.00    0.0    0.00000    0.00000    0.00000   0.00000  0.00000  0.00000  0.00000  0.00000  0.00000
2022/03/25 14:12:50.100   4160694.0947    677773.6533   4770983.7938   2   5   0.3110   0.0794   0.4073   0.1570   0.1796   0.3558   0.00    0.0    0.00000    0.00000    0.00000   0.00000  0.00000  0.00000  0.00000  0.00000  0.00000
2022/03/25 14:12:50.200   4160694.4549    677773.8880   4770983.3766   2   5   0.3110   0.0794   0.4073   0.1569   0.1796   0.3558   0.00    0.0    0.00000    0.00000    0.00000   0.00000  0.00000  0.00000  0.00000  0.00000  0.00000
2022/03/25 14:12:50.300   4160694.8103    677774.1065   4770982.9572   2   5   0.3109   0.0794   0.4072   0.1569   0.1796   0.3558   0.00    0.0    0.00000    0.00000    0.00000   0.00000  0.00000  0.00000  0.00000  0.00000  0.00000
2022/03/25 14:12:50.400   4160695.1984    677774.3494   4770982.5921   2   5   0.3106   0.0794   0.4069   0.1568   0.1794   0.3554   0.00    0.0    0.00000    0.00000    0.00000   0.00000  0.00000  0.00000  0.00000  0.00000  0.00000
2022/03/25 14:12:50.500   4160695.6062    677774.6112   4770982.2522   2   5   0.3106   0.0794   0.4069   0.1568   0.1795   0.3554   0.00    0.0    0.00000    0.00000    0.00000   0.00000  0.00000  0.00000  0.00000  0.00000  0.00000
2022/03/25 14:12:50.600   4160696.0369    677774.8695   4770981.9565   2   5   0.3106   0.0795   0.4069   0.1568   0.1795   0.3554   0.00    0.0    0.00000    0.00000    0.00000   0.00000  0.00000  0.00000  0.00000  0.00000  0.00000
2022/03/25 14:12:50.700   4160696.4152    677775.1285   4770981.6017   2   5   0.3107   0.0795   0.4071   0.1570   0.1797   0.3556   0.00    0.0    0.00000    0.00000    0.00000   0.00000  0.00000  0.00000  0.00000  0.00000  0.00000
2022/03/25 14:12:50.800   4160696.8742    677775.3529   4770981.3052   2   4   0.3113   0.0797   0.4079   0.1572   0.1799   0.3563   0.00    0.0    0.00000    0.00000    0.00000   0.00000  0.00000  0.00000  0.00000  0.00000  0.00000
2022/03/25 14:12:50.900   4160697.2447    677775.5781   4770980.9188   2   4   0.3113   0.0797   0.4078   0.1572   0.1799   0.3562   0.00    0.0    0.00000    0.00000    0.00000   0.00000  0.00000  0.00000  0.00000  0.00000  0.00000
2022/03/25 14:12:51.000   4160697.6107    677775.7996   4770980.5350   2   4   0.3113   0.0797   0.4078   0.1572   0.1799   0.3562   0.00    0.0    0.00000    0.00000    0.00000   0.00000  0.00000  0.00000  0.00000  0.00000  0.00000
2022/03/25 14:12:51.100   4160697.9916    677776.0234   4770980.1418   2   4   0.3113   0.0797   0.4078   0.1572   0.1799   0.3562   0.00    0.0    0.00000    0.00000    0.00000   0.00000  0.00000  0.00000  0.00000  0.00000  0.00000
2022/03/25 14:12:51.200   4160698.3885    677776.2425   4770979.7784   2   4   0.3113   0.0797   0.4078   0.1572   0.1799   0.3562   0.00    0.0    0.00000    0.00000    0.00000   0.00000  0.00000  0.00000  0.00000  0.00000  0.00000
2022/03/25 14:12:51.300   4160698.8054    677776.4682   4770979.4136   2   4   0.3113   0.0797   0.4078   0.1572   0.1799   0.3562   0.00    0.0    0.00000    0.00000    0.00000   0.00000  0.00000  0.00000  0.00000  0.00000  0.00000
2022/03/25 14:12:51.400   4160699.1850    677776.6892   4770979.0374   2   4   0.3112   0.0797   0.4078   0.1572   0.1799   0.3562   0.00    0.0    0.00000    0.00000    0.00000   0.00000  0.00000  0.00000  0.00000  0.00000  0.00000
2022/03/25 14:12:51.500   4160699.5661    677776.9133   4770978.6632   2   4   0.3112   0.0797   0.4078   0.1572   0.1800   0.3562   0.00    0.0    0.00000    0.00000    0.00000   0.00000  0.00000  0.00000  0.00000  0.00000  0.00000
2022/03/25 14:12:51.600   4160699.9443    677777.1165   4770978.2463   2   4   0.3112   0.0797   0.4078   0.1572   0.1800   0.3561   0.00    0.0    0.00000    0.00000    0.00000   0.00000  0.00000  0.00000  0.00000  0.00000  0.00000
2022/03/25 14:12:51.700   4160700.3331    677777.3250   4770977.8407   2   4   0.3112   0.0797   0.4078   0.1572   0.1800   0.3561   0.00    0.0    0.00000    0.00000    0.00000   0.00000  0.00000  0.00000  0.00000  0.00000  0.00000
2022/03/25 14:12:51.800   4160700.7410    677777.5591   4770977.4657   2   4   0.3112   0.0797   0.4078   0.1572   0.1800   0.3561   0.00    0.0    0.00000    0.00000    0.00000   0.00000  0.00000  0.00000  0.00000  0.00000  0.00000
2022/03/25 14:12:51.900   4160701.1809    677777.7869   4770977.0880   2   4   0.3112   0.0797   0.4078   0.1572   0.1800   0.3561   0.00    0.0    0.00000    0.00000    0.00000   0.00000  0.00000  0.00000  0.00000  0.00000  0.00000
2022/03/25 14:12:52.000   4160701.5882    677778.0152   4770976.6814   2   4   0.3112   0.0797   0.4077   0.1572   0.1800   0.3561   0.00    0.0    0.00000    0.00000    0.00000   0.00000  0.00000  0.00000  0.00000  0.00000  0.00000
2022/03/25 14:12:52.100   4160701.9912    677778.2395   4770976.2974   2   4   0.3111   0.0797   0.4077   0.1572   0.1800   0.3561   0.00    0.0    0.00000    0.00000    0.00000   0.00000  0.00000  0.00000  0.00000  0.00000  0.00000
2022/03/25 14:12:52.200   4160702.4125    677778.4671   4770975.8908   2   4   0.3111   0.0797   0.4077   0.1572   0.1800   0.3561   0.00    0.0    0.00000    0.00000    0.00000   0.00000  0.00000  0.00000  0.00000  0.00000  0.00000
2022/03/25 14:12:52.300   4160702.8387    677778.6821   4770975.4801   2   4   0.3111   0.0797   0.4077   0.1572   0.1800   0.3561   0.00    0.0    0.00000    0.00000    0.00000   0.00000  0.00000  0.00000  0.00000  0.00000  0.00000
2022/03/25 14:12:52.400   4160703.2732    677778.9168   4770975.1088   2   4   0.3111   0.0797   0.4077   0.1572   0.1800   0.3560   0.00    0.0    0.00000    0.00000    0.00000   0.00000  0.00000  0.00000  0.00000  0.00000  0.00000
2022/03/25 14:12:52.500   4160703.6540    677779.0927   4770974.6531   2   4   0.3111   0.0797   0.4077   0.1572   0.1800   0.3560   0.00    0.0    0.00000    0.00000    0.00000   0.00000  0.00000  0.00000  0.00000  0.00000  0.00000
2022/03/25 14:12:52.600   4160704.0337    677779.2898   4770974.1936   2   5   0.3108   0.0796   0.4074   0.1571   0.1798   0.3557   0.00    0.0    0.00000    0.00000    0.00000   0.00000  0.00000  0.00000  0.00000  0.00000  0.00000
2022/03/25 14:12:52.700   4160704.4587    677779.4935   4770973.7703   2   4   0.3111   0.0797   0.4077   0.1572   0.1800   0.3560   0.00    0.0    0.00000    0.00000    0.00000   0.00000  0.00000  0.00000  0.00000  0.00000  0.00000
2022/03/25 14:12:52.800   4160704.8919    677779.7176   4770973.3586   2   4   0.3111   0.0797   0.4077   0.1572   0.1800   0.3560   0.00    0.0    0.00000    0.00000    0.00000   0.00000  0.00000  0.00000  0.00000  0.00000  0.00000
2022/03/25 14:12:52.900   4160705.3432    677779.9389   4770972.9362   2   4   0.3110   0.0797   0.4077   0.1572   0.1800   0.3560   0.00    0.0    0.00000    0.00000    0.00000   0.00000  0.00000  0.00000  0.00000  0.00000  0.00000
2022/03/25 14:12:53.000   4160705.7901    677780.1722   4770972.5189   2   4   0.3110   0.0798   0.4077   0.1572   0.1800   0.3560   0.00    0.0    0.00000    0.00000    0.00000   0.00000  0.00000  0.00000  0.00000  0.00000  0.00000
2022/03/25 14:12:53.100   4160706.2191    677780.3813   4770972.0771   2   4   0.3110   0.0798   0.4077   0.1572   0.1800   0.3560   0.00    0.0    0.00000    0.00000    0.00000   0.00000  0.00000  0.00000  0.00000  0.00000  0.00000
2022/03/25 14:12:53.200   4160706.6572    677780.6033   4770971.6346   2   4   0.3110   0.0798   0.4077   0.1572   0.1800   0.3560   0.00    0.0    0.00000    0.00000    0.00000   0.00000  0.00000  0.00000  0.00000  0.00000  0.00000
2022/03/25 14:12:53.300   4160707.1109    677780.8270   4770971.2065   2   4   0.3110   0.0798   0.4077   0.1572   0.1800   0.3560   0.00    0.0    0.00000    0.00000    0.00000   0.00000  0.00000  0.00000  0.00000  0.00000  0.00000
2022/03/25 14:12:53.400   4160707.5304    677781.0421   4770970.7349   2   5   0.3107   0.0796   0.4073   0.1571   0.1798   0.3556   0.00    0.0    0.00000    0.00000    0.00000   0.00000  0.00000  0.00000  0.00000  0.00000  0.00000
2022/03/25 14:12:53.500   4160707.9828    677781.2634   4770970.3028   2   5   0.3107   0.0796   0.4073   0.1571   0.1798   0.3557   0.00    0.0    0.00000    0.00000    0.00000   0.00000  0.00000  0.00000  0.00000  0.00000  0.00000
2022/03/25 14:12:53.600   4160708.4618    677781.4863   4770969.8760   2   5   0.3107   0.0796   0.4073   0.1571   0.1799   0.3557   0.00    0.0    0.00000    0.00000    0.00000   0.00000  0.00000  0.00000  0.00000  0.00000  0.00000
2022/03/25 14:12:53.700   4160708.9103    677781.7062   4770969.4131   2   5   0.3107   0.0796   0.4073   0.1571   0.1799   0.3557   0.00    0.0    0.00000    0.00000    0.00000   0.00000  0.00000  0.00000  0.00000  0.00000  0.00000
2022/03/25 14:12:53.800   4160709.3790    677781.9318   4770968.9772   2   5   0.3107   0.0796   0.4073   0.1571   0.1799   0.3557   0.00    0.0    0.00000    0.00000    0.00000   0.00000  0.00000  0.00000  0.00000  0.00000  0.00000
