% program   : RTKPOST ver.demo5 b34d
% inp file  : D:\Amaster\4semester\Satellitenavigation\U2\roverTest2.obs
% inp file  : D:\Amaster\4semester\Satellitenavigation\U2\baseTest2.obs
% inp file  : D:\Amaster\4semester\Satellitenavigation\U2\base.nav
% obs start : 2022/03/25 14:12:28.0 GPST (week2202 483148.0s)
% obs end   : 2022/03/25 14:16:44.8 GPST (week2202 483404.8s)
% pos mode  : Kinematic
% freqs     : L1+L2/E5b+L5
% solution  : Forward
% elev mask : 5.0 deg
% dynamics  : off
% tidecorr  : off
% ionos opt : OFF
% tropo opt : OFF
% ephemeris : Broadcast
% navi sys  : GPS
% amb res   : Fix and Hold
% val thres : 4.0
% antenna1  :                       ( 0.0000  0.0000  0.0000)
% antenna2  :                       ( 0.0000  0.0000  0.0000)
% ref pos   :  4161163.2044    678675.6669   4770420.4641
%
% (x/y/z-ecef=WGS84,Q=1:fix,2:float,3:sbas,4:dgps,5:single,6:ppp,ns=# of satellites)
%  GPST                      x-ecef(m)      y-ecef(m)      z-ecef(m)   Q  ns   sdx(m)   sdy(m)   sdz(m)  sdxy(m)  sdyz(m)  sdzx(m) age(s)  ratio    vx(m/s)    vy(m/s)    vz(m/s)      sdvx     sdvy     sdvz    sdvxy    sdvyz    sdvzx
2022/03/25 14:12:28.000   4160643.1146    677711.7945   4771038.6163   2   6   2.6630   1.2974   2.7739   0.6893   1.2559   2.1533   0.00    0.0    0.00000    0.00000    0.00000   0.00000  0.00000  0.00000  0.00000  0.00000  0.00000
2022/03/25 14:12:28.100   4160643.1079    677711.8079   4771038.6126   2   6   1.9519   0.9501   2.0338   0.5220   0.9217   1.5867   0.00    0.0    0.00000    0.00000    0.00000   0.00000  0.00000  0.00000  0.00000  0.00000  0.00000
2022/03/25 14:12:28.200   4160643.2735    677711.8308   4771038.7615   2   6   1.6139   0.7854   1.6817   0.4366   0.7624   1.3144   0.00    0.0    0.00000    0.00000    0.00000   0.00000  0.00000  0.00000  0.00000  0.00000  0.00000
2022/03/25 14:12:28.300   4160643.3602    677711.8410   4771038.8354   2   6   1.4067   0.6844   1.4658   0.3827   0.6647   1.1467   0.00    0.0    0.00000    0.00000    0.00000   0.00000  0.00000  0.00000  0.00000  0.00000  0.00000
2022/03/25 14:12:28.400   4160643.3408    677711.7960   4771038.8044   2   6   1.2631   0.6145   1.3162   0.3448   0.5969   1.0302   0.00    0.0    0.00000    0.00000    0.00000   0.00000  0.00000  0.00000  0.00000  0.00000  0.00000
2022/03/25 14:12:28.500   4160643.3280    677711.7679   4771038.7896   2   6   1.1560   0.5624   1.2046   0.3163   0.5464   0.9432   0.00    0.0    0.00000    0.00000    0.00000   0.00000  0.00000  0.00000  0.00000  0.00000  0.00000
2022/03/25 14:12:28.600   4160643.3314    677711.7435   4771038.7726   2   6   1.0722   0.5216   1.1173   0.2939   0.5068   0.8751   0.00    0.0    0.00000    0.00000    0.00000   0.00000  0.00000  0.00000  0.00000  0.00000  0.00000
2022/03/25 14:12:28.700   4160643.3292    677711.7226   4771038.7538   2   6   1.0044   0.4886   1.0465   0.2757   0.4747   0.8199   0.00    0.0    0.00000    0.00000    0.00000   0.00000  0.00000  0.00000  0.00000  0.00000  0.00000
2022/03/25 14:12:28.800   4160643.3533    677711.7342   4771038.7359   2   6   0.9480   0.4611   0.9877   0.2604   0.4481   0.7739   0.00    0.0    0.00000    0.00000    0.00000   0.00000  0.00000  0.00000  0.00000  0.00000  0.00000
2022/03/25 14:12:28.900   4160643.3717    677711.7438   4771038.7251   2   6   0.9001   0.4379   0.9378   0.2474   0.4254   0.7349   0.00    0.0    0.00000    0.00000    0.00000   0.00000  0.00000  0.00000  0.00000  0.00000  0.00000
2022/03/25 14:12:29.000   4160643.3900    677711.7594   4771038.7635   2   6   0.8588   0.4178   0.8947   0.2362   0.4059   0.7012   0.00    0.0    0.00000    0.00000    0.00000   0.00000  0.00000  0.00000  0.00000  0.00000  0.00000
2022/03/25 14:12:29.100   4160643.4078    677711.7754   4771038.8050   2   6   0.8227   0.4002   0.8570   0.2264   0.3888   0.6718   0.00    0.0    0.00000    0.00000    0.00000   0.00000  0.00000  0.00000  0.00000  0.00000  0.00000
2022/03/25 14:12:29.200   4160643.4396    677711.7989   4771038.8700   2   6   0.7908   0.3847   0.8238   0.2177   0.3738   0.6457   0.00    0.0    0.00000    0.00000    0.00000   0.00000  0.00000  0.00000  0.00000  0.00000  0.00000
2022/03/25 14:12:29.300   4160643.4633    677711.8190   4771038.9201   2   6   0.7623   0.3709   0.7940   0.2099   0.3603   0.6225   0.00    0.0    0.00000    0.00000    0.00000   0.00000  0.00000  0.00000  0.00000  0.00000  0.00000
2022/03/25 14:12:29.400   4160643.4907    677711.8354   4771038.9239   2   6   0.7367   0.3584   0.7673   0.2029   0.3482   0.6016   0.00    0.0    0.00000    0.00000    0.00000   0.00000  0.00000  0.00000  0.00000  0.00000  0.00000
2022/03/25 14:12:29.500   4160643.5176    677711.8508   4771038.9321   2   6   0.7135   0.3471   0.7431   0.1966   0.3372   0.5826   0.00    0.0    0.00000    0.00000    0.00000   0.00000  0.00000  0.00000  0.00000  0.00000  0.00000
2022/03/25 14:12:29.600   4160643.5716    677711.8534   4771038.9267   2   6   0.6924   0.3369   0.7210   0.1908   0.3272   0.5653   0.00    0.0    0.00000    0.00000    0.00000   0.00000  0.00000  0.00000  0.00000  0.00000  0.00000
2022/03/25 14:12:29.700   4160643.6122    677711.8584   4771038.9119   2   6   0.6730   0.3275   0.7008   0.1855   0.3180   0.5495   0.00    0.0    0.00000    0.00000    0.00000   0.00000  0.00000  0.00000  0.00000  0.00000  0.00000
2022/03/25 14:12:29.800   4160643.6231    677711.8774   4771038.9072   2   6   0.6552   0.3188   0.6821   0.1806   0.3096   0.5349   0.00    0.0    0.00000    0.00000    0.00000   0.00000  0.00000  0.00000  0.00000  0.00000  0.00000
2022/03/25 14:12:29.900   4160643.6371    677711.9007   4771038.9042   2   6   0.6387   0.3108   0.6649   0.1760   0.3017   0.5214   0.00    0.0    0.00000    0.00000    0.00000   0.00000  0.00000  0.00000  0.00000  0.00000  0.00000
2022/03/25 14:12:30.000   4160643.6453    677711.9472   4771038.9474   2   6   0.6234   0.3033   0.6489   0.1718   0.2945   0.5089   0.00    0.0    0.00000    0.00000    0.00000   0.00000  0.00000  0.00000  0.00000  0.00000  0.00000
2022/03/25 14:12:30.100   4160643.6694    677711.9957   4771038.9964   2   6   0.6091   0.2964   0.6340   0.1679   0.2877   0.4972   0.00    0.0    0.00000    0.00000    0.00000   0.00000  0.00000  0.00000  0.00000  0.00000  0.00000
2022/03/25 14:12:30.200   4160643.6701    677712.0864   4771039.0794   2   6   0.5958   0.2899   0.6200   0.1642   0.2814   0.4863   0.00    0.0    0.00000    0.00000    0.00000   0.00000  0.00000  0.00000  0.00000  0.00000  0.00000
2022/03/25 14:12:30.300   4160643.6517    677712.1612   4771039.1001   2   6   0.5832   0.2838   0.6071   0.1611   0.2755   0.4762   0.00    0.0    0.00000    0.00000    0.00000   0.00000  0.00000  0.00000  0.00000  0.00000  0.00000
2022/03/25 14:12:30.400   4160643.6159    677712.2166   4771039.0589   2   5   0.5717   0.2791   0.5961   0.1569   0.2716   0.4661   0.00    0.0    0.00000    0.00000    0.00000   0.00000  0.00000  0.00000  0.00000  0.00000  0.00000
2022/03/25 14:12:30.500   4160643.5877    677712.2733   4771039.0049   2   5   0.5608   0.2746   0.5857   0.1529   0.2678   0.4567   0.00    0.0    0.00000    0.00000    0.00000   0.00000  0.00000  0.00000  0.00000  0.00000  0.00000
2022/03/25 14:12:30.600   4160643.5857    677712.3301   4771038.9736   2   5   0.5506   0.2703   0.5758   0.1492   0.2642   0.4477   0.00    0.0    0.00000    0.00000    0.00000   0.00000  0.00000  0.00000  0.00000  0.00000  0.00000
2022/03/25 14:12:30.700   4160643.5813    677712.4006   4771038.9310   2   6   0.5407   0.2653   0.5654   0.1467   0.2593   0.4398   0.00    0.0    0.00000    0.00000    0.00000   0.00000  0.00000  0.00000  0.00000  0.00000  0.00000
2022/03/25 14:12:30.800   4160643.5899    677712.4581   4771038.8497   2   6   0.5313   0.2607   0.5555   0.1443   0.2547   0.4322   0.00    0.0    0.00000    0.00000    0.00000   0.00000  0.00000  0.00000  0.00000  0.00000  0.00000
2022/03/25 14:12:30.900   4160643.6112    677712.5398   4771038.7926   2   6   0.5225   0.2562   0.5461   0.1420   0.2503   0.4250   0.00    0.0    0.00000    0.00000    0.00000   0.00000  0.00000  0.00000  0.00000  0.00000  0.00000
2022/03/25 14:12:31.000   4160643.6435    677712.6292   4771038.7431   2   6   0.5140   0.2520   0.5371   0.1398   0.2461   0.4182   0.00    0.0    0.00000    0.00000    0.00000   0.00000  0.00000  0.00000  0.00000  0.00000  0.00000
2022/03/25 14:12:31.100   4160643.6632    677712.7171   4771038.6733   2   6   0.5059   0.2480   0.5286   0.1376   0.2421   0.4117   0.00    0.0    0.00000    0.00000    0.00000   0.00000  0.00000  0.00000  0.00000  0.00000  0.00000
2022/03/25 14:12:31.200   4160643.7425    677712.7987   4771038.5956   2   6   0.4982   0.2442   0.5205   0.1356   0.2383   0.4055   0.00    0.0    0.00000    0.00000    0.00000   0.00000  0.00000  0.00000  0.00000  0.00000  0.00000
2022/03/25 14:12:31.300   4160643.8023    677712.9111   4771038.5510   2   6   0.4909   0.2405   0.5127   0.1337   0.2347   0.3995   0.00    0.0    0.00000    0.00000    0.00000   0.00000  0.00000  0.00000  0.00000  0.00000  0.00000
2022/03/25 14:12:31.400   4160643.8765    677713.0257   4771038.5249   2   6   0.4838   0.2370   0.5052   0.1319   0.2312   0.3939   0.00    0.0    0.00000    0.00000    0.00000   0.00000  0.00000  0.00000  0.00000  0.00000  0.00000
2022/03/25 14:12:31.500   4160643.9663    677713.1321   4771038.4638   2   6   0.4771   0.2337   0.4981   0.1301   0.2279   0.3884   0.00    0.0    0.00000    0.00000    0.00000   0.00000  0.00000  0.00000  0.00000  0.00000  0.00000
2022/03/25 14:12:31.600   4160644.0234    677713.2341   4771038.3317   2   5   0.4707   0.2310   0.4920   0.1278   0.2257   0.3828   0.00    0.0    0.00000    0.00000    0.00000   0.00000  0.00000  0.00000  0.00000  0.00000  0.00000
2022/03/25 14:12:31.700   4160644.0656    677713.3802   4771038.2258   2   5   0.4646   0.2284   0.4861   0.1256   0.2235   0.3775   0.00    0.0    0.00000    0.00000    0.00000   0.00000  0.00000  0.00000  0.00000  0.00000  0.00000
2022/03/25 14:12:31.800   4160644.1237    677713.5514   4771038.1534   2   5   0.4587   0.2260   0.4804   0.1235   0.2214   0.3724   0.00    0.0    0.00000    0.00000    0.00000   0.00000  0.00000  0.00000  0.00000  0.00000  0.00000
2022/03/25 14:12:31.900   4160644.1740    677713.7326   4771038.0653   2   5   0.4531   0.2235   0.4749   0.1215   0.2193   0.3675   0.00    0.0    0.00000    0.00000    0.00000   0.00000  0.00000  0.00000  0.00000  0.00000  0.00000
2022/03/25 14:12:32.000   4160644.2572    677713.9317   4771037.9756   2   5   0.4476   0.2212   0.4696   0.1196   0.2173   0.3627   0.00    0.0    0.00000    0.00000    0.00000   0.00000  0.00000  0.00000  0.00000  0.00000  0.00000
2022/03/25 14:12:32.100   4160644.3229    677714.1344   4771037.8523   2   5   0.4423   0.2190   0.4645   0.1177   0.2154   0.3582   0.00    0.0    0.00000    0.00000    0.00000   0.00000  0.00000  0.00000  0.00000  0.00000  0.00000
2022/03/25 14:12:32.200   4160644.3728    677714.3482   4771037.7093   2   5   0.4372   0.2168   0.4595   0.1160   0.2135   0.3538   0.00    0.0    0.00000    0.00000    0.00000   0.00000  0.00000  0.00000  0.00000  0.00000  0.00000
2022/03/25 14:12:32.300   4160644.4332    677714.5961   4771037.6049   2   5   0.4323   0.2147   0.4547   0.1142   0.2116   0.3495   0.00    0.0    0.00000    0.00000    0.00000   0.00000  0.00000  0.00000  0.00000  0.00000  0.00000
2022/03/25 14:12:32.400   4160644.4946    677714.8447   4771037.4879   2   5   0.4276   0.2126   0.4500   0.1126   0.2098   0.3454   0.00    0.0    0.00000    0.00000    0.00000   0.00000  0.00000  0.00000  0.00000  0.00000  0.00000
2022/03/25 14:12:32.500   4160644.5509    677715.1087   4771037.3657   2   5   0.4230   0.2106   0.4455   0.1110   0.2081   0.3415   0.00    0.0    0.00000    0.00000    0.00000   0.00000  0.00000  0.00000  0.00000  0.00000  0.00000
2022/03/25 14:12:32.600   4160644.6113    677715.3759   4771037.2279   2   5   0.4185   0.2087   0.4411   0.1095   0.2063   0.3377   0.00    0.0    0.00000    0.00000    0.00000   0.00000  0.00000  0.00000  0.00000  0.00000  0.00000
2022/03/25 14:12:32.700   4160644.6825    677715.6455   4771037.0764   2   5   0.4142   0.2068   0.4368   0.1080   0.2047   0.3340   0.00    0.0    0.00000    0.00000    0.00000   0.00000  0.00000  0.00000  0.00000  0.00000  0.00000
2022/03/25 14:12:32.800   4160644.7502    677715.9285   4771036.9185   2   5   0.4100   0.2050   0.4327   0.1066   0.2030   0.3304   0.00    0.0    0.00000    0.00000    0.00000   0.00000  0.00000  0.00000  0.00000  0.00000  0.00000
2022/03/25 14:12:32.900   4160644.8255    677716.2261   4771036.7699   2   5   0.4060   0.2032   0.4286   0.1052   0.2014   0.3269   0.00    0.0    0.00000    0.00000    0.00000   0.00000  0.00000  0.00000  0.00000  0.00000  0.00000
2022/03/25 14:12:33.000   4160644.9063    677716.5220   4771036.6023   2   5   0.4020   0.2014   0.4247   0.1039   0.1998   0.3235   0.00    0.0    0.00000    0.00000    0.00000   0.00000  0.00000  0.00000  0.00000  0.00000  0.00000
2022/03/25 14:12:33.100   4160645.0166    677716.8445   4771036.4906   2   5   0.3982   0.1997   0.4209   0.1026   0.1983   0.3202   0.00    0.0    0.00000    0.00000    0.00000   0.00000  0.00000  0.00000  0.00000  0.00000  0.00000
2022/03/25 14:12:33.200   4160645.1153    677717.1661   4771036.3446   2   5   0.3945   0.1981   0.4172   0.1014   0.1968   0.3171   0.00    0.0    0.00000    0.00000    0.00000   0.00000  0.00000  0.00000  0.00000  0.00000  0.00000
2022/03/25 14:12:33.300   4160645.2380    677717.4831   4771036.1830   2   5   0.3909   0.1965   0.4136   0.1002   0.1953   0.3140   0.00    0.0    0.00000    0.00000    0.00000   0.00000  0.00000  0.00000  0.00000  0.00000  0.00000
2022/03/25 14:12:33.400   4160645.3622    677717.8119   4771036.0103   2   5   0.3873   0.1949   0.4100   0.0990   0.1939   0.3110   0.00    0.0    0.00000    0.00000    0.00000   0.00000  0.00000  0.00000  0.00000  0.00000  0.00000
2022/03/25 14:12:33.500   4160645.4928    677718.1479   4771035.8555   2   5   0.3839   0.1934   0.4066   0.0979   0.1925   0.3081   0.00    0.0    0.00000    0.00000    0.00000   0.00000  0.00000  0.00000  0.00000  0.00000  0.00000
2022/03/25 14:12:33.600   4160645.6386    677718.4946   4771035.6792   2   5   0.3806   0.1919   0.4032   0.0968   0.1911   0.3052   0.00    0.0    0.00000    0.00000    0.00000   0.00000  0.00000  0.00000  0.00000  0.00000  0.00000
2022/03/25 14:12:33.700   4160645.7747    677718.8525   4771035.4952   2   5   0.3773   0.1904   0.4000   0.0957   0.1898   0.3025   0.00    0.0    0.00000    0.00000    0.00000   0.00000  0.00000  0.00000  0.00000  0.00000  0.00000
2022/03/25 14:12:33.800   4160645.9406    677719.2134   4771035.3346   2   5   0.3742   0.1890   0.3968   0.0947   0.1885   0.2998   0.00    0.0    0.00000    0.00000    0.00000   0.00000  0.00000  0.00000  0.00000  0.00000  0.00000
2022/03/25 14:12:33.900   4160646.0750    677719.5744   4771035.1044   2   5   0.3711   0.1876   0.3936   0.0936   0.1872   0.2972   0.00    0.0    0.00000    0.00000    0.00000   0.00000  0.00000  0.00000  0.00000  0.00000  0.00000
2022/03/25 14:12:34.000   4160646.2288    677719.9393   4771034.8921   2   5   0.3681   0.1862   0.3906   0.0927   0.1859   0.2946   0.00    0.0    0.00000    0.00000    0.00000   0.00000  0.00000  0.00000  0.00000  0.00000  0.00000
2022/03/25 14:12:34.100   4160646.3907    677720.2944   4771034.6695   2   5   0.3651   0.1849   0.3876   0.0917   0.1846   0.2921   0.00    0.0    0.00000    0.00000    0.00000   0.00000  0.00000  0.00000  0.00000  0.00000  0.00000
2022/03/25 14:12:34.200   4160646.5605    677720.6631   4771034.4386   2   5   0.3623   0.1836   0.3847   0.0908   0.1834   0.2897   0.00    0.0    0.00000    0.00000    0.00000   0.00000  0.00000  0.00000  0.00000  0.00000  0.00000
2022/03/25 14:12:34.300   4160646.7426    677721.0293   4771034.2296   2   5   0.3594   0.1823   0.3818   0.0899   0.1822   0.2873   0.00    0.0    0.00000    0.00000    0.00000   0.00000  0.00000  0.00000  0.00000  0.00000  0.00000
2022/03/25 14:12:34.400   4160646.9251    677721.3982   4771034.0067   2   5   0.3566   0.1807   0.3786   0.0894   0.1805   0.2852   0.00    0.0    0.00000    0.00000    0.00000   0.00000  0.00000  0.00000  0.00000  0.00000  0.00000
2022/03/25 14:12:34.500   4160647.3062    677721.7908   4771034.1042   1   5   0.0095   0.0044   0.0101   0.0024   0.0047   0.0078   0.00    9.5    0.00000    0.00000    0.00000   0.00000  0.00000  0.00000  0.00000  0.00000  0.00000
2022/03/25 14:12:34.600   4160647.4909    677722.1561   4771033.8805   1   5   0.0096   0.0046   0.0101   0.0024   0.0046   0.0079   0.00   10.2    0.00000    0.00000    0.00000   0.00000  0.00000  0.00000  0.00000  0.00000  0.00000
2022/03/25 14:12:34.700   4160647.6841    677722.5180   4771033.6634   1   5   0.0097   0.0047   0.0100   0.0030   0.0044   0.0079   0.00   10.7    0.00000    0.00000    0.00000   0.00000  0.00000  0.00000  0.00000  0.00000  0.00000
2022/03/25 14:12:34.800   4160647.8913    677722.8755   4771033.4509   1   5   0.0096   0.0046   0.0100   0.0024   0.0045   0.0078   0.00   11.1    0.00000    0.00000    0.00000   0.00000  0.00000  0.00000  0.00000  0.00000  0.00000
2022/03/25 14:12:34.900   4160648.0782    677723.2265   4771033.2079   1   5   0.0097   0.0047   0.0101   0.0031   0.0045   0.0078   0.00   11.5    0.00000    0.00000    0.00000   0.00000  0.00000  0.00000  0.00000  0.00000  0.00000
2022/03/25 14:12:35.000   4160648.2686    677723.5750   4771032.9730   1   5   0.0096   0.0050   0.0100   0.0028   0.0044   0.0079   0.00   11.7    0.00000    0.00000    0.00000   0.00000  0.00000  0.00000  0.00000  0.00000  0.00000
2022/03/25 14:12:35.100   4160648.4795    677723.9250   4771032.7377   1   5   0.0097   0.0049   0.0100   0.0028   0.0046   0.0079   0.00   11.7    0.00000    0.00000    0.00000   0.00000  0.00000  0.00000  0.00000  0.00000  0.00000
2022/03/25 14:12:35.200   4160648.6934    677724.2716   4771032.4976   1   5   0.0095   0.0045   0.0099   0.0025   0.0046   0.0080   0.00   11.2    0.00000    0.00000    0.00000   0.00000  0.00000  0.00000  0.00000  0.00000  0.00000
2022/03/25 14:12:35.300   4160648.8906    677724.6079   4771032.2412   1   5   0.0096   0.0045   0.0101   0.0027   0.0046   0.0078   0.00   10.8    0.00000    0.00000    0.00000   0.00000  0.00000  0.00000  0.00000  0.00000  0.00000
2022/03/25 14:12:35.400   4160649.0869    677724.9689   4771032.0239   1   5   0.0095   0.0049   0.0100   0.0028   0.0044   0.0080   0.00    8.5    0.00000    0.00000    0.00000   0.00000  0.00000  0.00000  0.00000  0.00000  0.00000
2022/03/25 14:12:35.500   4160649.3050    677725.3062   4771031.7793   1   5   0.0096   0.0048   0.0100   0.0029   0.0045   0.0079   0.00    6.3    0.00000    0.00000    0.00000   0.00000  0.00000  0.00000  0.00000  0.00000  0.00000
2022/03/25 14:12:35.600   4160649.5433    677725.6097   4771031.4731   1   5   0.0096   0.0048   0.0100   0.0030   0.0045   0.0079   0.00    3.6    0.00000    0.00000    0.00000   0.00000  0.00000  0.00000  0.00000  0.00000  0.00000
2022/03/25 14:12:35.700   4160649.7453    677725.9712   4771031.2383   1   5   0.0095   0.0045   0.0100   0.0027   0.0046   0.0079   0.00    5.3    0.00000    0.00000    0.00000   0.00000  0.00000  0.00000  0.00000  0.00000  0.00000
2022/03/25 14:12:35.800   4160649.9678    677726.2987   4771030.9812   1   5   0.0097   0.0052   0.0108   0.0021   0.0055   0.0075   0.00   10.9    0.00000    0.00000    0.00000   0.00000  0.00000  0.00000  0.00000  0.00000  0.00000
2022/03/25 14:12:35.900   4160650.1801    677726.6512   4771030.7618   1   5   0.0096   0.0043   0.0100   0.0025   0.0048   0.0079   0.00    3.5    0.00000    0.00000    0.00000   0.00000  0.00000  0.00000  0.00000  0.00000  0.00000
2022/03/25 14:12:36.000   4160650.3919    677726.9491   4771030.4481   1   5   0.0096   0.0045   0.0100   0.0027   0.0047   0.0078   0.00    3.3    0.00000    0.00000    0.00000   0.00000  0.00000  0.00000  0.00000  0.00000  0.00000
2022/03/25 14:12:36.100   4160650.6340    677727.3119   4771030.2312   1   5   0.0097   0.0050   0.0100   0.0029   0.0045   0.0079   0.00    6.2    0.00000    0.00000    0.00000   0.00000  0.00000  0.00000  0.00000  0.00000  0.00000
2022/03/25 14:12:36.200   4160650.8330    677727.6591   4771029.9901   1   5   0.0097   0.0047   0.0100   0.0028   0.0045   0.0079   0.00    4.4    0.00000    0.00000    0.00000   0.00000  0.00000  0.00000  0.00000  0.00000  0.00000
2022/03/25 14:12:36.300   4160650.9998    677727.9272   4771029.6212   1   5   0.0096   0.0049   0.0100   0.0027   0.0044   0.0079   0.00    3.3    0.00000    0.00000    0.00000   0.00000  0.00000  0.00000  0.00000  0.00000  0.00000
2022/03/25 14:12:36.400   4160651.1167    677728.2359   4771029.3037   1   5   0.0096   0.0043   0.0100   0.0024   0.0048   0.0079   0.00    4.3    0.00000    0.00000    0.00000   0.00000  0.00000  0.00000  0.00000  0.00000  0.00000
2022/03/25 14:12:36.500   4160651.5319    677728.6561   4771029.2172   1   5   0.0145   0.0082   0.0157   0.0085   0.0100   0.0134   0.00   17.7    0.00000    0.00000    0.00000   0.00000  0.00000  0.00000  0.00000  0.00000  0.00000
2022/03/25 14:12:36.600   4160651.7387    677729.0104   4771028.9561   1   4   0.0144   0.0081   0.0157   0.0084   0.0100   0.0134   0.00   29.9    0.00000    0.00000    0.00000   0.00000  0.00000  0.00000  0.00000  0.00000  0.00000
2022/03/25 14:12:36.700   4160651.9556    677729.3306   4771028.6899   1   4   0.0145   0.0081   0.0157   0.0084   0.0101   0.0134   0.00   31.3    0.00000    0.00000    0.00000   0.00000  0.00000  0.00000  0.00000  0.00000  0.00000
2022/03/25 14:12:36.800   4160652.2203    677729.6736   4771028.4429   1   5   0.0123   0.0067   0.0135   0.0060   0.0081   0.0108   0.00   32.7    0.00000    0.00000    0.00000   0.00000  0.00000  0.00000  0.00000  0.00000  0.00000
2022/03/25 14:12:36.900   4160652.4006    677730.0058   4771028.1558   1   5   0.0116   0.0063   0.0126   0.0052   0.0074   0.0098   0.00   34.1    0.00000    0.00000    0.00000   0.00000  0.00000  0.00000  0.00000  0.00000  0.00000
2022/03/25 14:12:37.000   4160652.6282    677730.3618   4771027.9209   1   4   0.0145   0.0080   0.0157   0.0084   0.0101   0.0134   0.00   34.7    0.00000    0.00000    0.00000   0.00000  0.00000  0.00000  0.00000  0.00000  0.00000
2022/03/25 14:12:37.100   4160652.8686    677730.7056   4771027.6653   1   4   0.0145   0.0080   0.0157   0.0084   0.0101   0.0134   0.00   35.6    0.00000    0.00000    0.00000   0.00000  0.00000  0.00000  0.00000  0.00000  0.00000
2022/03/25 14:12:37.200   4160653.1045    677731.0515   4771027.4094   1   4   0.0144   0.0080   0.0157   0.0084   0.0100   0.0134   0.00   37.5    0.00000    0.00000    0.00000   0.00000  0.00000  0.00000  0.00000  0.00000  0.00000
2022/03/25 14:12:37.300   4160653.3304    677731.3912   4771027.1563   1   4   0.0145   0.0080   0.0157   0.0084   0.0101   0.0134   0.00   38.2    0.00000    0.00000    0.00000   0.00000  0.00000  0.00000  0.00000  0.00000  0.00000
2022/03/25 14:12:37.400   4160653.5585    677731.7206   4771026.8918   1   4   0.0145   0.0082   0.0157   0.0084   0.0100   0.0134   0.00   39.1    0.00000    0.00000    0.00000   0.00000  0.00000  0.00000  0.00000  0.00000  0.00000
2022/03/25 14:12:37.500   4160653.7706    677732.0616   4771026.6260   1   4   0.0145   0.0080   0.0157   0.0084   0.0101   0.0134   0.00   39.8    0.00000    0.00000    0.00000   0.00000  0.00000  0.00000  0.00000  0.00000  0.00000
2022/03/25 14:12:37.600   4160654.0226    677732.4334   4771026.3796   1   5   0.0142   0.0066   0.0134   0.0074   0.0078   0.0123   0.00    6.5    0.00000    0.00000    0.00000   0.00000  0.00000  0.00000  0.00000  0.00000  0.00000
2022/03/25 14:12:37.700   4160654.2339    677732.7605   4771026.1020   1   5   0.0141   0.0066   0.0133   0.0075   0.0078   0.0124   0.00   11.4    0.00000    0.00000    0.00000   0.00000  0.00000  0.00000  0.00000  0.00000  0.00000
2022/03/25 14:12:37.800   4160654.4741    677733.1157   4771025.8442   1   5   0.0141   0.0067   0.0133   0.0074   0.0078   0.0123   0.00   16.7    0.00000    0.00000    0.00000   0.00000  0.00000  0.00000  0.00000  0.00000  0.00000
2022/03/25 14:12:37.900   4160654.6986    677733.4590   4771025.5803   1   5   0.0141   0.0066   0.0133   0.0075   0.0078   0.0124   0.00   22.3    0.00000    0.00000    0.00000   0.00000  0.00000  0.00000  0.00000  0.00000  0.00000
2022/03/25 14:12:38.000   4160654.9234    677733.8036   4771025.3137   1   5   0.0141   0.0065   0.0133   0.0075   0.0078   0.0123   0.00   27.0    0.00000    0.00000    0.00000   0.00000  0.00000  0.00000  0.00000  0.00000  0.00000
2022/03/25 14:12:38.100   4160655.1477    677734.1469   4771025.0446   1   5   0.0141   0.0066   0.0133   0.0074   0.0079   0.0123   0.00   32.0    0.00000    0.00000    0.00000   0.00000  0.00000  0.00000  0.00000  0.00000  0.00000
2022/03/25 14:12:38.200   4160655.4118    677734.5222   4771024.7931   1   5   0.0142   0.0065   0.0133   0.0074   0.0079   0.0123   0.00   38.3    0.00000    0.00000    0.00000   0.00000  0.00000  0.00000  0.00000  0.00000  0.00000
2022/03/25 14:12:38.300   4160655.6169    677734.8500   4771024.5130   1   5   0.0141   0.0067   0.0133   0.0075   0.0078   0.0123   0.00   42.4    0.00000    0.00000    0.00000   0.00000  0.00000  0.00000  0.00000  0.00000  0.00000
2022/03/25 14:12:38.400   4160655.8450    677735.2004   4771024.2392   1   5   0.0142   0.0067   0.0133   0.0074   0.0078   0.0124   0.00   48.4    0.00000    0.00000    0.00000   0.00000  0.00000  0.00000  0.00000  0.00000  0.00000
2022/03/25 14:12:38.500   4160656.0900    677735.5553   4771023.9830   1   5   0.0141   0.0065   0.0132   0.0074   0.0079   0.0124   0.00   49.1    0.00000    0.00000    0.00000   0.00000  0.00000  0.00000  0.00000  0.00000  0.00000
2022/03/25 14:12:38.600   4160656.3319    677735.9071   4771023.7197   1   5   0.0141   0.0066   0.0133   0.0074   0.0078   0.0124   0.00   51.4    0.00000    0.00000    0.00000   0.00000  0.00000  0.00000  0.00000  0.00000  0.00000
2022/03/25 14:12:38.700   4160656.5486    677736.2498   4771023.4493   1   5   0.0141   0.0065   0.0133   0.0074   0.0079   0.0124   0.00   53.0    0.00000    0.00000    0.00000   0.00000  0.00000  0.00000  0.00000  0.00000  0.00000
2022/03/25 14:12:38.800   4160656.7973    677736.5999   4771023.1826   1   5   0.0141   0.0067   0.0133   0.0075   0.0078   0.0123   0.00   53.8    0.00000    0.00000    0.00000   0.00000  0.00000  0.00000  0.00000  0.00000  0.00000
2022/03/25 14:12:38.900   4160657.0153    677736.9435   4771022.9030   1   5   0.0141   0.0068   0.0133   0.0074   0.0078   0.0124   0.00   57.0    0.00000    0.00000    0.00000   0.00000  0.00000  0.00000  0.00000  0.00000  0.00000
2022/03/25 14:12:39.000   4160657.2718    677737.3114   4771022.6622   1   5   0.0141   0.0060   0.0123   0.0072   0.0067   0.0118   0.00    9.6    0.00000    0.00000    0.00000   0.00000  0.00000  0.00000  0.00000  0.00000  0.00000
2022/03/25 14:12:39.100   4160657.5043    677737.6601   4771022.3888   1   5   0.0140   0.0059   0.0122   0.0071   0.0068   0.0120   0.00   20.1    0.00000    0.00000    0.00000   0.00000  0.00000  0.00000  0.00000  0.00000  0.00000
2022/03/25 14:12:39.200   4160657.7397    677738.0004   4771022.1122   1   5   0.0141   0.0058   0.0123   0.0070   0.0068   0.0119   0.00   34.6    0.00000    0.00000    0.00000   0.00000  0.00000  0.00000  0.00000  0.00000  0.00000
2022/03/25 14:12:39.300   4160657.9841    677738.3578   4771021.8391   1   5   0.0140   0.0058   0.0123   0.0072   0.0067   0.0119   0.00   46.5    0.00000    0.00000    0.00000   0.00000  0.00000  0.00000  0.00000  0.00000  0.00000
2022/03/25 14:12:39.400   4160658.2399    677738.7235   4771021.5979   1   5   0.0139   0.0061   0.0123   0.0072   0.0066   0.0119   0.00   52.0    0.00000    0.00000    0.00000   0.00000  0.00000  0.00000  0.00000  0.00000  0.00000
2022/03/25 14:12:39.500   4160658.4784    677739.0896   4771021.3367   1   5   0.0140   0.0060   0.0123   0.0070   0.0068   0.0119   0.00   54.5    0.00000    0.00000    0.00000   0.00000  0.00000  0.00000  0.00000  0.00000  0.00000
2022/03/25 14:12:39.600   4160658.7472    677739.4636   4771021.1208   1   5   0.0140   0.0059   0.0123   0.0069   0.0069   0.0119   0.00   43.8    0.00000    0.00000    0.00000   0.00000  0.00000  0.00000  0.00000  0.00000  0.00000
2022/03/25 14:12:39.700   4160659.0020    677739.8448   4771020.8874   1   5   0.0142   0.0066   0.0133   0.0074   0.0079   0.0123   0.00   19.8    0.00000    0.00000    0.00000   0.00000  0.00000  0.00000  0.00000  0.00000  0.00000
2022/03/25 14:12:39.800   4160659.1842    677740.1154   4771020.4691   1   4   0.0141   0.0067   0.0133   0.0074   0.0078   0.0123   0.00   11.1    0.00000    0.00000    0.00000   0.00000  0.00000  0.00000  0.00000  0.00000  0.00000
2022/03/25 14:12:39.900   4160659.4081    677740.4656   4771020.1821   1   4   0.0144   0.0081   0.0157   0.0084   0.0101   0.0134   0.00   72.1    0.00000    0.00000    0.00000   0.00000  0.00000  0.00000  0.00000  0.00000  0.00000
2022/03/25 14:12:40.000   4160659.6724    677740.8416   4771019.9408   1   4   0.0141   0.0066   0.0133   0.0074   0.0079   0.0123   0.00    5.4    0.00000    0.00000    0.00000   0.00000  0.00000  0.00000  0.00000  0.00000  0.00000
2022/03/25 14:12:40.100   4160659.9264    677741.2060   4771019.7003   2   4   0.0180   0.0112   0.0204   0.0099   0.0124   0.0164   0.00    1.3    0.00000    0.00000    0.00000   0.00000  0.00000  0.00000  0.00000  0.00000  0.00000
2022/03/25 14:12:40.200   4160660.1158    677741.5181   4771019.3609   2   4   0.0182   0.0116   0.0213   0.0102   0.0133   0.0167   0.00    3.0    0.00000    0.00000    0.00000   0.00000  0.00000  0.00000  0.00000  0.00000  0.00000
2022/03/25 14:12:40.300   4160660.3742    677741.8664   4771019.0860   1   4   0.0144   0.0080   0.0157   0.0084   0.0101   0.0134   0.00   70.5    0.00000    0.00000    0.00000   0.00000  0.00000  0.00000  0.00000  0.00000  0.00000
2022/03/25 14:12:40.400   4160660.6207    677742.2276   4771018.8291   1   4   0.0144   0.0081   0.0157   0.0084   0.0100   0.0134   0.00   69.9    0.00000    0.00000    0.00000   0.00000  0.00000  0.00000  0.00000  0.00000  0.00000
2022/03/25 14:12:40.500   4160660.8726    677742.5710   4771018.5684   1   4   0.0145   0.0081   0.0157   0.0084   0.0101   0.0134   0.00   68.6    0.00000    0.00000    0.00000   0.00000  0.00000  0.00000  0.00000  0.00000  0.00000
2022/03/25 14:12:40.600   4160661.0995    677742.9112   4771018.3050   1   5   0.0145   0.0082   0.0157   0.0084   0.0100   0.0134   0.00   67.5    0.00000    0.00000    0.00000   0.00000  0.00000  0.00000  0.00000  0.00000  0.00000
2022/03/25 14:12:40.700   4160661.3380    677743.2482   4771018.0306   1   5   0.0129   0.0072   0.0140   0.0068   0.0085   0.0115   0.00   67.2    0.00000    0.00000    0.00000   0.00000  0.00000  0.00000  0.00000  0.00000  0.00000
2022/03/25 14:12:40.800   4160661.5760    677743.5899   4771017.7540   1   5   0.0110   0.0062   0.0120   0.0045   0.0066   0.0092   0.00    8.1    0.00000    0.00000    0.00000   0.00000  0.00000  0.00000  0.00000  0.00000  0.00000
2022/03/25 14:12:40.900   4160661.8319    677743.9439   4771017.4770   1   5   0.0110   0.0061   0.0120   0.0045   0.0067   0.0092   0.00   10.5    0.00000    0.00000    0.00000   0.00000  0.00000  0.00000  0.00000  0.00000  0.00000
2022/03/25 14:12:41.000   4160662.0992    677744.2981   4771017.2025   1   5   0.0109   0.0059   0.0121   0.0044   0.0068   0.0092   0.00   13.0    0.00000    0.00000    0.00000   0.00000  0.00000  0.00000  0.00000  0.00000  0.00000
2022/03/25 14:12:41.100   4160662.3454    677744.6442   4771016.9168   1   5   0.0110   0.0058   0.0121   0.0044   0.0068   0.0092   0.00   14.5    0.00000    0.00000    0.00000   0.00000  0.00000  0.00000  0.00000  0.00000  0.00000
2022/03/25 14:12:41.200   4160662.6184    677744.9935   4771016.6460   1   5   0.0110   0.0061   0.0121   0.0043   0.0068   0.0091   0.00   16.6    0.00000    0.00000    0.00000   0.00000  0.00000  0.00000  0.00000  0.00000  0.00000
2022/03/25 14:12:41.300   4160662.8762    677745.3415   4771016.3737   1   5   0.0110   0.0062   0.0121   0.0044   0.0066   0.0091   0.00   18.6    0.00000    0.00000    0.00000   0.00000  0.00000  0.00000  0.00000  0.00000  0.00000
2022/03/25 14:12:41.400   4160663.1266    677745.6742   4771016.0793   1   5   0.0109   0.0060   0.0121   0.0042   0.0068   0.0092   0.00   20.8    0.00000    0.00000    0.00000   0.00000  0.00000  0.00000  0.00000  0.00000  0.00000
2022/03/25 14:12:41.500   4160663.3868    677746.0111   4771015.7895   1   5   0.0110   0.0060   0.0120   0.0043   0.0068   0.0092   0.00   22.3    0.00000    0.00000    0.00000   0.00000  0.00000  0.00000  0.00000  0.00000  0.00000
2022/03/25 14:12:41.600   4160663.6796    677746.3667   4771015.5174   1   5   0.0110   0.0062   0.0120   0.0045   0.0067   0.0092   0.00   22.4    0.00000    0.00000    0.00000   0.00000  0.00000  0.00000  0.00000  0.00000  0.00000
2022/03/25 14:12:41.700   4160663.9621    677746.7315   4771015.2190   1   5   0.0111   0.0059   0.0120   0.0042   0.0068   0.0092   0.00   20.9    0.00000    0.00000    0.00000   0.00000  0.00000  0.00000  0.00000  0.00000  0.00000
2022/03/25 14:12:41.800   4160664.2456    677747.0844   4771014.9163   1   6   0.0109   0.0055   0.0111   0.0046   0.0056   0.0092   0.00    5.2    0.00000    0.00000    0.00000   0.00000  0.00000  0.00000  0.00000  0.00000  0.00000
2022/03/25 14:12:41.900   4160664.5634    677747.4571   4771014.6319   1   6   0.0109   0.0055   0.0111   0.0047   0.0056   0.0093   0.00    7.1    0.00000    0.00000    0.00000   0.00000  0.00000  0.00000  0.00000  0.00000  0.00000
2022/03/25 14:12:42.000   4160664.8641    677747.8152   4771014.3383   1   6   0.0110   0.0053   0.0112   0.0046   0.0056   0.0092   0.00    7.5    0.00000    0.00000    0.00000   0.00000  0.00000  0.00000  0.00000  0.00000  0.00000
2022/03/25 14:12:42.100   4160665.1565    677748.1902   4771014.0232   1   6   0.0109   0.0053   0.0111   0.0045   0.0057   0.0093   0.00    7.1    0.00000    0.00000    0.00000   0.00000  0.00000  0.00000  0.00000  0.00000  0.00000
2022/03/25 14:12:42.200   4160665.3859    677748.5243   4771013.6302   1   5   0.0141   0.0065   0.0132   0.0075   0.0079   0.0124   0.00   22.5    0.00000    0.00000    0.00000   0.00000  0.00000  0.00000  0.00000  0.00000  0.00000
2022/03/25 14:12:42.300   4160665.6637    677748.8840   4771013.2895   1   5   0.0141   0.0066   0.0133   0.0073   0.0079   0.0124   0.00   27.3    0.00000    0.00000    0.00000   0.00000  0.00000  0.00000  0.00000  0.00000  0.00000
2022/03/25 14:12:42.400   4160665.9773    677749.2602   4771012.9615   1   5   0.0141   0.0066   0.0133   0.0075   0.0078   0.0123   0.00   31.5    0.00000    0.00000    0.00000   0.00000  0.00000  0.00000  0.00000  0.00000  0.00000
2022/03/25 14:12:42.500   4160666.2645    677749.6321   4771012.6315   1   5   0.0141   0.0064   0.0133   0.0073   0.0080   0.0123   0.00   37.7    0.00000    0.00000    0.00000   0.00000  0.00000  0.00000  0.00000  0.00000  0.00000
2022/03/25 14:12:42.600   4160666.5989    677750.0323   4771012.3653   1   5   0.0141   0.0065   0.0133   0.0074   0.0079   0.0123   0.00   48.7    0.00000    0.00000    0.00000   0.00000  0.00000  0.00000  0.00000  0.00000  0.00000
2022/03/25 14:12:42.700   4160666.8943    677750.4026   4771012.0275   1   5   0.0141   0.0065   0.0133   0.0073   0.0080   0.0123   0.00   55.4    0.00000    0.00000    0.00000   0.00000  0.00000  0.00000  0.00000  0.00000  0.00000
2022/03/25 14:12:42.800   4160667.2374    677750.7910   4771011.7043   1   5   0.0141   0.0066   0.0133   0.0075   0.0078   0.0123   0.00   52.7    0.00000    0.00000    0.00000   0.00000  0.00000  0.00000  0.00000  0.00000  0.00000
2022/03/25 14:12:42.900   4160667.5214    677751.1488   4771011.3046   1   5   0.0145   0.0082   0.0157   0.0083   0.0100   0.0134   0.00   69.8    0.00000    0.00000    0.00000   0.00000  0.00000  0.00000  0.00000  0.00000  0.00000
2022/03/25 14:12:43.000   4160667.8413    677751.5209   4771010.9438   1   4   0.0144   0.0081   0.0157   0.0084   0.0101   0.0134   0.00   68.1    0.00000    0.00000    0.00000   0.00000  0.00000  0.00000  0.00000  0.00000  0.00000
2022/03/25 14:12:43.100   4160668.1746    677751.9162   4771010.6118   1   4   0.0145   0.0082   0.0157   0.0084   0.0100   0.0134   0.00   68.4    0.00000    0.00000    0.00000   0.00000  0.00000  0.00000  0.00000  0.00000  0.00000
2022/03/25 14:12:43.200   4160668.4985    677752.3086   4771010.2722   1   4   0.0144   0.0081   0.0157   0.0084   0.0101   0.0134   0.00   69.1    0.00000    0.00000    0.00000   0.00000  0.00000  0.00000  0.00000  0.00000  0.00000
2022/03/25 14:12:43.300   4160668.8015    677752.6647   4771009.8860   1   4   0.0144   0.0081   0.0157   0.0084   0.0101   0.0134   0.00   68.5    0.00000    0.00000    0.00000   0.00000  0.00000  0.00000  0.00000  0.00000  0.00000
2022/03/25 14:12:43.400   4160669.1705    677753.0550   4771009.5471   1   4   0.0145   0.0081   0.0157   0.0084   0.0100   0.0134   0.00   67.2    0.00000    0.00000    0.00000   0.00000  0.00000  0.00000  0.00000  0.00000  0.00000
2022/03/25 14:12:43.500   4160669.4922    677753.4153   4771009.1984   1   4   0.0145   0.0082   0.0157   0.0084   0.0100   0.0134   0.00   68.2    0.00000    0.00000    0.00000   0.00000  0.00000  0.00000  0.00000  0.00000  0.00000
2022/03/25 14:12:43.600   4160669.7776    677753.7658   4771008.7799   1   5   0.0142   0.0075   0.0145   0.0080   0.0090   0.0129   0.00   68.1    0.00000    0.00000    0.00000   0.00000  0.00000  0.00000  0.00000  0.00000  0.00000
2022/03/25 14:12:43.700   4160670.1369    677754.1644   4771008.4630   1   4   0.0145   0.0081   0.0157   0.0084   0.0100   0.0134   0.00   68.7    0.00000    0.00000    0.00000   0.00000  0.00000  0.00000  0.00000  0.00000  0.00000
2022/03/25 14:12:43.800   4160670.4887    677754.5408   4771008.0981   1   4   0.0145   0.0081   0.0157   0.0084   0.0101   0.0134   0.00   68.6    0.00000    0.00000    0.00000   0.00000  0.00000  0.00000  0.00000  0.00000  0.00000
2022/03/25 14:12:43.900   4160670.8430    677754.9101   4771007.7259   1   4   0.0144   0.0080   0.0156   0.0084   0.0101   0.0134   0.00   67.3    0.00000    0.00000    0.00000   0.00000  0.00000  0.00000  0.00000  0.00000  0.00000
2022/03/25 14:12:44.000   4160671.1930    677755.2774   4771007.3625   1   4   0.0144   0.0081   0.0157   0.0083   0.0101   0.0133   0.00   66.8    0.00000    0.00000    0.00000   0.00000  0.00000  0.00000  0.00000  0.00000  0.00000
2022/03/25 14:12:44.100   4160671.5180    677755.6410   4771006.9952   1   4   0.0145   0.0081   0.0157   0.0084   0.0101   0.0134   0.00   68.4    0.00000    0.00000    0.00000   0.00000  0.00000  0.00000  0.00000  0.00000  0.00000
2022/03/25 14:12:44.200   4160671.8803    677755.9881   4771006.6111   1   4   0.0144   0.0080   0.0156   0.0083   0.0101   0.0134   0.00   64.8    0.00000    0.00000    0.00000   0.00000  0.00000  0.00000  0.00000  0.00000  0.00000
2022/03/25 14:12:44.300   4160672.2262    677756.3503   4771006.2484   1   5   0.0144   0.0081   0.0156   0.0083   0.0101   0.0134   0.00   65.5    0.00000    0.00000    0.00000   0.00000  0.00000  0.00000  0.00000  0.00000  0.00000
2022/03/25 14:12:44.400   4160672.5857    677756.7167   4771005.8974   1   4   0.0144   0.0080   0.0156   0.0084   0.0101   0.0134   0.00   65.6    0.00000    0.00000    0.00000   0.00000  0.00000  0.00000  0.00000  0.00000  0.00000
2022/03/25 14:12:44.500   4160672.9418    677757.0579   4771005.5125   1   4   0.0145   0.0082   0.0157   0.0084   0.0100   0.0133   0.00   66.0    0.00000    0.00000    0.00000   0.00000  0.00000  0.00000  0.00000  0.00000  0.00000
2022/03/25 14:12:44.600   4160673.3007    677757.4283   4771005.1594   1   4   0.0145   0.0082   0.0157   0.0084   0.0100   0.0133   0.00   68.4    0.00000    0.00000    0.00000   0.00000  0.00000  0.00000  0.00000  0.00000  0.00000
2022/03/25 14:12:44.700   4160673.6654    677757.7815   4771004.7726   1   4   0.0144   0.0082   0.0157   0.0083   0.0101   0.0133   0.00   66.7    0.00000    0.00000    0.00000   0.00000  0.00000  0.00000  0.00000  0.00000  0.00000
2022/03/25 14:12:44.800   4160674.0077    677758.1086   4771004.3741   1   4   0.0145   0.0082   0.0157   0.0084   0.0100   0.0134   0.00   67.8    0.00000    0.00000    0.00000   0.00000  0.00000  0.00000  0.00000  0.00000  0.00000
2022/03/25 14:12:44.900   4160674.3650    677758.4480   4771003.9874   1   4   0.0145   0.0081   0.0157   0.0084   0.0100   0.0134   0.00   66.5    0.00000    0.00000    0.00000   0.00000  0.00000  0.00000  0.00000  0.00000  0.00000
2022/03/25 14:12:45.000   4160674.7045    677758.7658   4771003.5706   1   4   0.0144   0.0081   0.0157   0.0084   0.0100   0.0133   0.00   67.5    0.00000    0.00000    0.00000   0.00000  0.00000  0.00000  0.00000  0.00000  0.00000
2022/03/25 14:12:45.100   4160675.0677    677759.1111   4771003.2005   1   4   0.0144   0.0080   0.0156   0.0084   0.0101   0.0134   0.00   67.6    0.00000    0.00000    0.00000   0.00000  0.00000  0.00000  0.00000  0.00000  0.00000
2022/03/25 14:12:45.200   4160675.4812    677759.4584   4771002.8545   1   4   0.0144   0.0082   0.0157   0.0084   0.0100   0.0134   0.00   65.6    0.00000    0.00000    0.00000   0.00000  0.00000  0.00000  0.00000  0.00000  0.00000
2022/03/25 14:12:45.300   4160675.8390    677759.7971   4771002.4728   1   4   0.0144   0.0081   0.0157   0.0083   0.0101   0.0133   0.00   65.1    0.00000    0.00000    0.00000   0.00000  0.00000  0.00000  0.00000  0.00000  0.00000
2022/03/25 14:12:45.400   4160676.2178    677760.1293   4771002.0912   1   4   0.0144   0.0082   0.0157   0.0084   0.0100   0.0134   0.00   66.0    0.00000    0.00000    0.00000   0.00000  0.00000  0.00000  0.00000  0.00000  0.00000
2022/03/25 14:12:45.500   4160676.5821    677760.4514   4771001.6999   1   4   0.0145   0.0082   0.0157   0.0084   0.0100   0.0134   0.00   65.9    0.00000    0.00000    0.00000   0.00000  0.00000  0.00000  0.00000  0.00000  0.00000
2022/03/25 14:12:45.600   4160676.9623    677760.7799   4771001.3298   1   4   0.0145   0.0081   0.0157   0.0084   0.0100   0.0134   0.00   64.6    0.00000    0.00000    0.00000   0.00000  0.00000  0.00000  0.00000  0.00000  0.00000
2022/03/25 14:12:45.700   4160677.3415    677761.1219   4771000.9501   1   4   0.0145   0.0081   0.0157   0.0084   0.0100   0.0133   0.00   62.8    0.00000    0.00000    0.00000   0.00000  0.00000  0.00000  0.00000  0.00000  0.00000
2022/03/25 14:12:45.800   4160677.7061    677761.4650   4771000.5562   1   4   0.0145   0.0082   0.0157   0.0084   0.0100   0.0134   0.00   61.4    0.00000    0.00000    0.00000   0.00000  0.00000  0.00000  0.00000  0.00000  0.00000
2022/03/25 14:12:45.900   4160678.0816    677761.7848   4771000.1686   1   4   0.0144   0.0082   0.0157   0.0084   0.0100   0.0133   0.00   60.1    0.00000    0.00000    0.00000   0.00000  0.00000  0.00000  0.00000  0.00000  0.00000
2022/03/25 14:12:46.000   4160678.4399    677762.0942   4770999.7574   1   5   0.0144   0.0082   0.0157   0.0084   0.0100   0.0134   0.00   58.7    0.00000    0.00000    0.00000   0.00000  0.00000  0.00000  0.00000  0.00000  0.00000
2022/03/25 14:12:46.100   4160678.8114    677762.4068   4770999.3671   1   5   0.0143   0.0073   0.0145   0.0079   0.0090   0.0128   0.00   57.9    0.00000    0.00000    0.00000   0.00000  0.00000  0.00000  0.00000  0.00000  0.00000
2022/03/25 14:12:46.200   4160679.2043    677762.7514   4770999.0090   1   5   0.0141   0.0067   0.0133   0.0074   0.0078   0.0123   0.00    6.8    0.00000    0.00000    0.00000   0.00000  0.00000  0.00000  0.00000  0.00000  0.00000
2022/03/25 14:12:46.300   4160679.6041    677763.0659   4770998.6240   1   5   0.0141   0.0067   0.0133   0.0075   0.0078   0.0123   0.00    9.6    0.00000    0.00000    0.00000   0.00000  0.00000  0.00000  0.00000  0.00000  0.00000
2022/03/25 14:12:46.400   4160679.9503    677763.3806   4770998.2019   1   5   0.0141   0.0065   0.0133   0.0073   0.0080   0.0123   0.00   11.9    0.00000    0.00000    0.00000   0.00000  0.00000  0.00000  0.00000  0.00000  0.00000
2022/03/25 14:12:46.500   4160680.3604    677763.7053   4770997.8283   1   5   0.0141   0.0067   0.0133   0.0075   0.0077   0.0123   0.00   14.7    0.00000    0.00000    0.00000   0.00000  0.00000  0.00000  0.00000  0.00000  0.00000
2022/03/25 14:12:46.600   4160680.7445    677764.0317   4770997.4515   1   5   0.0141   0.0066   0.0133   0.0075   0.0078   0.0123   0.00   15.5    0.00000    0.00000    0.00000   0.00000  0.00000  0.00000  0.00000  0.00000  0.00000
2022/03/25 14:12:46.700   4160681.1404    677764.3291   4770997.0636   1   5   0.0145   0.0082   0.0157   0.0085   0.0100   0.0134   0.00   58.6    0.00000    0.00000    0.00000   0.00000  0.00000  0.00000  0.00000  0.00000  0.00000
2022/03/25 14:12:46.800   4160681.5116    677764.6273   4770996.6513   1   4   0.0145   0.0081   0.0157   0.0084   0.0100   0.0134   0.00   57.6    0.00000    0.00000    0.00000   0.00000  0.00000  0.00000  0.00000  0.00000  0.00000
2022/03/25 14:12:46.900   4160681.8603    677764.9365   4770996.2460   1   4   0.0145   0.0081   0.0157   0.0084   0.0100   0.0134   0.00   57.1    0.00000    0.00000    0.00000   0.00000  0.00000  0.00000  0.00000  0.00000  0.00000
2022/03/25 14:12:47.000   4160682.2420    677765.2372   4770995.8474   1   4   0.0203   0.0092   0.0253   0.0115   0.0138   0.0214   0.00   46.6    0.00000    0.00000    0.00000   0.00000  0.00000  0.00000  0.00000  0.00000  0.00000
2022/03/25 14:12:47.100   4160682.6205    677765.5482   4770995.4497   1   4   0.0176   0.0087   0.0210   0.0101   0.0120   0.0179   0.00   47.3    0.00000    0.00000    0.00000   0.00000  0.00000  0.00000  0.00000  0.00000  0.00000
2022/03/25 14:12:47.200   4160683.0409    677765.8645   4770995.1103   1   4   0.0150   0.0082   0.0166   0.0087   0.0104   0.0142   0.00    5.2    0.00000    0.00000    0.00000   0.00000  0.00000  0.00000  0.00000  0.00000  0.00000
2022/03/25 14:12:47.300   4160683.4263    677766.1653   4770994.7366   1   4   0.0149   0.0083   0.0164   0.0087   0.0103   0.0140   0.00    7.4    0.00000    0.00000    0.00000   0.00000  0.00000  0.00000  0.00000  0.00000  0.00000
2022/03/25 14:12:47.400   4160683.8398    677766.1341   4770993.8447   2   4   0.0349   1.6666   2.4723   0.2246   2.0298   0.2737   0.00    0.0    0.00000    0.00000    0.00000   0.00000  0.00000  0.00000  0.00000  0.00000  0.00000
2022/03/25 14:12:47.500   4160684.2074    677766.4229   4770993.4611   2   4   0.0279   1.2145   1.8015   0.1634   1.4791   0.1994   0.00    0.0    0.00000    0.00000    0.00000   0.00000  0.00000  0.00000  0.00000  0.00000  0.00000
2022/03/25 14:12:47.600   4160684.5824    677766.8507   4770993.2804   2   4   0.0249   1.0020   1.4864   0.1347   1.2204   0.1644   0.00    0.0    0.00000    0.00000    0.00000   0.00000  0.00000  0.00000  0.00000  0.00000  0.00000
2022/03/25 14:12:47.700   4160684.9642    677767.1618   4770992.9315   2   4   0.0231   0.8724   1.2940   0.1171   1.0625   0.1430   0.00    0.0    0.00000    0.00000    0.00000   0.00000  0.00000  0.00000  0.00000  0.00000  0.00000
2022/03/25 14:12:47.800   4160685.3467    677767.3929   4770992.4634   2   4   0.0220   0.7828   1.1611   0.1049   0.9533   0.1282   0.00    0.0    0.00000    0.00000    0.00000   0.00000  0.00000  0.00000  0.00000  0.00000  0.00000
2022/03/25 14:12:47.900   4160685.7356    677767.4227   4770991.6828   2   4   0.0341   1.6663   2.4714   0.2221   2.0293   0.2707   0.00    0.0    0.00000    0.00000    0.00000   0.00000  0.00000  0.00000  0.00000  0.00000  0.00000
2022/03/25 14:12:48.000   4160686.1060    677767.0142   4770990.2559   2   4   0.0339   1.6661   2.4710   0.2216   2.0290   0.2701   0.00    0.0    0.00000    0.00000    0.00000   0.00000  0.00000  0.00000  0.00000  0.00000  0.00000
2022/03/25 14:12:48.100   4160686.5068    677767.2827   4770989.8423   2   4   0.0272   1.2142   1.8008   0.1613   1.4787   0.1967   0.00    0.0    0.00000    0.00000    0.00000   0.00000  0.00000  0.00000  0.00000  0.00000  0.00000
2022/03/25 14:12:48.200   4160686.9051    677767.7051   4770989.6421   2   4   0.0243   1.0019   1.4859   0.1329   1.2201   0.1622   0.00    0.0    0.00000    0.00000    0.00000   0.00000  0.00000  0.00000  0.00000  0.00000  0.00000
2022/03/25 14:12:48.300   4160687.2778    677768.0031   4770989.2998   2   4   0.0227   0.8723   1.2936   0.1156   1.0622   0.1411   0.00    0.0    0.00000    0.00000    0.00000   0.00000  0.00000  0.00000  0.00000  0.00000  0.00000
2022/03/25 14:12:48.400   4160687.7190    677768.5498   4770989.2623   2   4   0.0229   0.7827   1.1608   0.1038   0.9532   0.1266   0.00    0.0    0.00000    0.00000    0.00000   0.00000  0.00000  0.00000  0.00000  0.00000  0.00000
2022/03/25 14:12:48.500   4160688.3873    677769.2466   4770989.2733   2   4   1.5979   1.8193   1.5020   1.6374   1.5928   1.3079   0.00    0.0    0.00000    0.00000    0.00000   0.00000  0.00000  0.00000  0.00000  0.00000  0.00000
2022/03/25 14:12:48.900   4160690.1716    677770.7700   4770988.1986   2   4   0.8360   0.9921   0.9582   0.8292   0.9237   0.6318   0.00    0.0    0.00000    0.00000    0.00000   0.00000  0.00000  0.00000  0.00000  0.00000  0.00000
2022/03/25 14:12:49.000   4160690.4562    677771.0104   4770987.8663   2   4   0.7627   0.8813   0.8576   0.7400   0.8178   0.5434   0.00    0.0    0.00000    0.00000    0.00000   0.00000  0.00000  0.00000  0.00000  0.00000  0.00000
2022/03/25 14:12:49.600   4160692.5005    677772.4178   4770985.5632   2   4   0.5633   0.6693   0.6856   0.5416   0.6371   0.3912   0.00    0.0    0.00000    0.00000    0.00000   0.00000  0.00000  0.00000  0.00000  0.00000  0.00000
2022/03/25 14:12:49.700   4160692.8357    677772.6441   4770985.1599   2   4   0.5363   0.6389   0.6617   0.5131   0.6112   0.3673   0.00    0.0    0.00000    0.00000    0.00000   0.00000  0.00000  0.00000  0.00000  0.00000  0.00000
2022/03/25 14:12:49.800   4160693.2364    677772.9144   4770984.8251   2   5   0.5118   0.6035   0.6278   0.4850   0.5771   0.3406   0.00    0.0    0.00000    0.00000    0.00000   0.00000  0.00000  0.00000  0.00000  0.00000  0.00000
2022/03/25 14:12:49.900   4160693.6067    677773.1791   4770984.4620   2   5   0.4906   0.5735   0.5989   0.4610   0.5481   0.3182   0.00    0.0    0.00000    0.00000    0.00000   0.00000  0.00000  0.00000  0.00000  0.00000  0.00000
2022/03/25 14:12:50.000   4160694.0089    677773.4438   4770984.1260   2   5   0.4720   0.5475   0.5737   0.4404   0.5232   0.2992   0.00    0.0    0.00000    0.00000    0.00000   0.00000  0.00000  0.00000  0.00000  0.00000  0.00000
2022/03/25 14:12:50.100   4160694.3755    677773.6908   4770983.7575   2   5   0.4555   0.5248   0.5516   0.4222   0.5013   0.2828   0.00    0.0    0.00000    0.00000    0.00000   0.00000  0.00000  0.00000  0.00000  0.00000  0.00000
2022/03/25 14:12:50.200   4160694.7706    677773.9468   4770983.3842   2   5   0.4406   0.5046   0.5319   0.4062   0.4820   0.2685   0.00    0.0    0.00000    0.00000    0.00000   0.00000  0.00000  0.00000  0.00000  0.00000  0.00000
2022/03/25 14:12:50.300   4160695.1656    677774.1923   4770983.0103   2   5   0.4272   0.4867   0.5142   0.3919   0.4647   0.2559   0.00    0.0    0.00000    0.00000    0.00000   0.00000  0.00000  0.00000  0.00000  0.00000  0.00000
2022/03/25 14:12:50.400   4160695.5561    677774.4585   4770982.6692   2   5   0.4145   0.4660   0.4916   0.3773   0.4433   0.2416   0.00    0.0    0.00000    0.00000    0.00000   0.00000  0.00000  0.00000  0.00000  0.00000  0.00000
2022/03/25 14:12:50.500   4160695.9622    677774.7555   4770982.3564   2   5   0.4030   0.4478   0.4719   0.3644   0.4246   0.2293   0.00    0.0    0.00000    0.00000    0.00000   0.00000  0.00000  0.00000  0.00000  0.00000  0.00000
2022/03/25 14:12:50.600   4160696.3654    677775.0680   4770982.0909   2   5   0.3924   0.4317   0.4544   0.3529   0.4081   0.2184   0.00    0.0    0.00000    0.00000    0.00000   0.00000  0.00000  0.00000  0.00000  0.00000  0.00000
2022/03/25 14:12:50.700   4160696.6932    677775.2535   4770981.6237   2   5   0.3826   0.4167   0.4382   0.3421   0.3928   0.2084   0.00    0.0    0.00000    0.00000    0.00000   0.00000  0.00000  0.00000  0.00000  0.00000  0.00000
2022/03/25 14:12:50.800   4160697.0708    677775.4861   4770981.2781   2   4   0.3741   0.4090   0.4322   0.3342   0.3867   0.2032   0.00    0.0    0.00000    0.00000    0.00000   0.00000  0.00000  0.00000  0.00000  0.00000  0.00000
2022/03/25 14:12:50.900   4160697.4196    677775.7041   4770980.8883   2   4   0.3660   0.4017   0.4264   0.3269   0.3808   0.1983   0.00    0.0    0.00000    0.00000    0.00000   0.00000  0.00000  0.00000  0.00000  0.00000  0.00000
2022/03/25 14:12:51.000   4160697.7702    677775.9125   4770980.5259   2   4   0.3585   0.3947   0.4209   0.3199   0.3753   0.1938   0.00    0.0    0.00000    0.00000    0.00000   0.00000  0.00000  0.00000  0.00000  0.00000  0.00000
2022/03/25 14:12:51.100   4160698.1418    677776.1248   4770980.1568   2   4   0.3514   0.3882   0.4156   0.3134   0.3700   0.1895   0.00    0.0    0.00000    0.00000    0.00000   0.00000  0.00000  0.00000  0.00000  0.00000  0.00000
2022/03/25 14:12:51.200   4160698.5276    677776.3384   4770979.7879   2   4   0.3448   0.3820   0.4105   0.3073   0.3649   0.1855   0.00    0.0    0.00000    0.00000    0.00000   0.00000  0.00000  0.00000  0.00000  0.00000  0.00000
2022/03/25 14:12:51.300   4160698.9242    677776.5580   4770979.4066   2   4   0.3385   0.3761   0.4055   0.3015   0.3601   0.1817   0.00    0.0    0.00000    0.00000    0.00000   0.00000  0.00000  0.00000  0.00000  0.00000  0.00000
2022/03/25 14:12:51.400   4160699.2960    677776.7679   4770979.0144   2   4   0.3325   0.3705   0.4008   0.2960   0.3554   0.1781   0.00    0.0    0.00000    0.00000    0.00000   0.00000  0.00000  0.00000  0.00000  0.00000  0.00000
2022/03/25 14:12:51.500   4160699.6838    677776.9854   4770978.6375   2   4   0.3268   0.3651   0.3962   0.2908   0.3510   0.1748   0.00    0.0    0.00000    0.00000    0.00000   0.00000  0.00000  0.00000  0.00000  0.00000  0.00000
2022/03/25 14:12:51.600   4160700.0637    677777.1803   4770978.2198   2   4   0.3215   0.3600   0.3918   0.2859   0.3467   0.1716   0.00    0.0    0.00000    0.00000    0.00000   0.00000  0.00000  0.00000  0.00000  0.00000  0.00000
2022/03/25 14:12:51.700   4160700.4442    677777.3788   4770977.8020   2   4   0.3163   0.3551   0.3875   0.2812   0.3426   0.1685   0.00    0.0    0.00000    0.00000    0.00000   0.00000  0.00000  0.00000  0.00000  0.00000  0.00000
2022/03/25 14:12:51.800   4160700.8559    677777.6168   4770977.4333   2   4   0.3115   0.3504   0.3834   0.2767   0.3386   0.1656   0.00    0.0    0.00000    0.00000    0.00000   0.00000  0.00000  0.00000  0.00000  0.00000  0.00000
2022/03/25 14:12:51.900   4160701.2943    677777.8452   4770977.0598   2   4   0.3068   0.3459   0.3794   0.2725   0.3348   0.1629   0.00    0.0    0.00000    0.00000    0.00000   0.00000  0.00000  0.00000  0.00000  0.00000  0.00000
2022/03/25 14:12:52.000   4160701.7053    677778.0857   4770976.6673   2   4   0.3023   0.3416   0.3755   0.2684   0.3311   0.1602   0.00    0.0    0.00000    0.00000    0.00000   0.00000  0.00000  0.00000  0.00000  0.00000  0.00000
2022/03/25 14:12:52.100   4160702.1132    677778.3236   4770976.2963   2   4   0.2981   0.3375   0.3718   0.2645   0.3275   0.1577   0.00    0.0    0.00000    0.00000    0.00000   0.00000  0.00000  0.00000  0.00000  0.00000  0.00000
2022/03/25 14:12:52.200   4160702.5356    677778.5576   4770975.8962   2   4   0.2940   0.3335   0.3681   0.2608   0.3240   0.1553   0.00    0.0    0.00000    0.00000    0.00000   0.00000  0.00000  0.00000  0.00000  0.00000  0.00000
2022/03/25 14:12:52.300   4160702.9737    677778.7845   4770975.4988   2   4   0.2900   0.3296   0.3646   0.2572   0.3207   0.1530   0.00    0.0    0.00000    0.00000    0.00000   0.00000  0.00000  0.00000  0.00000  0.00000  0.00000
2022/03/25 14:12:52.400   4160703.4225    677779.0365   4770975.1419   2   4   0.2863   0.3259   0.3612   0.2537   0.3175   0.1508   0.00    0.0    0.00000    0.00000    0.00000   0.00000  0.00000  0.00000  0.00000  0.00000  0.00000
2022/03/25 14:12:52.500   4160703.8175    677779.2290   4770974.7005   2   4   0.2827   0.3223   0.3578   0.2504   0.3143   0.1487   0.00    0.0    0.00000    0.00000    0.00000   0.00000  0.00000  0.00000  0.00000  0.00000  0.00000
2022/03/25 14:12:52.600   4160704.2143    677779.3996   4770974.2331   2   5   0.2791   0.3174   0.3523   0.2469   0.3093   0.1458   0.00    0.0    0.00000    0.00000    0.00000   0.00000  0.00000  0.00000  0.00000  0.00000  0.00000
2022/03/25 14:12:52.700   4160704.6519    677779.6270   4770973.8361   2   4   0.2757   0.3141   0.3493   0.2439   0.3065   0.1440   0.00    1.8    0.00000    0.00000    0.00000   0.00000  0.00000  0.00000  0.00000  0.00000  0.00000
2022/03/25 14:12:52.800   4160705.0733    677779.8386   4770973.4125   2   4   0.2725   0.3109   0.3463   0.2409   0.3037   0.1421   0.00    1.8    0.00000    0.00000    0.00000   0.00000  0.00000  0.00000  0.00000  0.00000  0.00000
2022/03/25 14:12:52.900   4160705.5135    677780.0508   4770972.9754   2   4   0.2694   0.3078   0.3433   0.2381   0.3009   0.1403   0.00    1.8    0.00000    0.00000    0.00000   0.00000  0.00000  0.00000  0.00000  0.00000  0.00000
2022/03/25 14:12:53.000   4160705.9560    677780.2834   4770972.5543   2   4   0.2663   0.3048   0.3405   0.2353   0.2983   0.1386   0.00    1.8    0.00000    0.00000    0.00000   0.00000  0.00000  0.00000  0.00000  0.00000  0.00000
2022/03/25 14:12:53.100   4160706.3840    677780.4934   4770972.1122   2   4   0.2634   0.3019   0.3377   0.2327   0.2957   0.1369   0.00    1.8    0.00000    0.00000    0.00000   0.00000  0.00000  0.00000  0.00000  0.00000  0.00000
2022/03/25 14:12:53.200   4160706.8300    677780.7218   4770971.6903   2   4   0.2606   0.2990   0.3350   0.2301   0.2931   0.1353   0.00    1.8    0.00000    0.00000    0.00000   0.00000  0.00000  0.00000  0.00000  0.00000  0.00000
2022/03/25 14:12:53.300   4160707.2770    677780.9476   4770971.2668   2   4   0.2578   0.2963   0.3323   0.2276   0.2907   0.1337   0.00    1.8    0.00000    0.00000    0.00000   0.00000  0.00000  0.00000  0.00000  0.00000  0.00000
2022/03/25 14:12:53.400   4160707.7036    677781.1452   4770970.8032   2   5   0.2551   0.2924   0.3278   0.2249   0.2867   0.1315   0.00    1.3    0.00000    0.00000    0.00000   0.00000  0.00000  0.00000  0.00000  0.00000  0.00000
2022/03/25 14:12:53.500   4160708.1549    677781.3645   4770970.3803   2   5   0.2525   0.2888   0.3236   0.2223   0.2829   0.1295   0.00    1.3    0.00000    0.00000    0.00000   0.00000  0.00000  0.00000  0.00000  0.00000  0.00000
2022/03/25 14:12:53.600   4160708.6164    677781.5824   4770969.9436   2   5   0.2500   0.2852   0.3196   0.2199   0.2793   0.1276   0.00    1.4    0.00000    0.00000    0.00000   0.00000  0.00000  0.00000  0.00000  0.00000  0.00000
2022/03/25 14:12:53.700   4160709.0722    677781.8050   4770969.4927   2   5   0.2475   0.2819   0.3157   0.2175   0.2758   0.1258   0.00    1.5    0.00000    0.00000    0.00000   0.00000  0.00000  0.00000  0.00000  0.00000  0.00000
2022/03/25 14:12:53.800   4160709.5335    677782.0381   4770969.0548   2   5   0.2452   0.2786   0.3119   0.2152   0.2725   0.1240   0.00    1.6    0.00000    0.00000    0.00000   0.00000  0.00000  0.00000  0.00000  0.00000  0.00000
