% program   : RTKPOST ver.demo5 b34d
% inp file  : D:\Amaster\4semester\Satellitenavigation\U2\roverTest2.obs
% inp file  : D:\Amaster\4semester\Satellitenavigation\U2\baseTest2.obs
% inp file  : D:\Amaster\4semester\Satellitenavigation\U2\base.nav
% obs start : 2022/03/25 14:12:28.0 GPST (week2202 483148.0s)
% obs end   : 2022/03/25 14:16:44.8 GPST (week2202 483404.8s)
% pos mode  : Kinematic
% freqs     : L1+L2/E5b
% solution  : Forward
% elev mask : 5.0 deg
% dynamics  : off
% tidecorr  : off
% ionos opt : OFF
% tropo opt : OFF
% ephemeris : Broadcast
% navi sys  : GPS Galileo
% amb res   : Fix and Hold
% val thres : 4.0
% antenna1  :                       ( 0.0000  0.0000  0.0000)
% antenna2  :                       ( 0.0000  0.0000  0.0000)
% ref pos   :  4161163.2044    678675.6669   4770420.4641
%
% (x/y/z-ecef=WGS84,Q=1:fix,2:float,3:sbas,4:dgps,5:single,6:ppp,ns=# of satellites)
%  GPST                      x-ecef(m)      y-ecef(m)      z-ecef(m)   Q  ns   sdx(m)   sdy(m)   sdz(m)  sdxy(m)  sdyz(m)  sdzx(m) age(s)  ratio    vx(m/s)    vy(m/s)    vz(m/s)      sdvx     sdvy     sdvz    sdvxy    sdvyz    sdvzx
2022/03/25 14:12:28.000   4160643.9640    677712.4432   4771040.8365   2  11   1.9139   0.9947   2.0294   0.5227   0.7218   1.6241   0.00    0.0    0.00000    0.00000    0.00000   0.00000  0.00000  0.00000  0.00000  0.00000  0.00000
2022/03/25 14:12:28.100   4160643.9945    677712.4468   4771040.8447   2  11   1.3945   0.7301   1.4808   0.3862   0.5275   1.1820   0.00    0.0    0.00000    0.00000    0.00000   0.00000  0.00000  0.00000  0.00000  0.00000  0.00000
2022/03/25 14:12:28.200   4160644.0911    677712.4380   4771040.9087   2  11   1.1506   0.6039   1.2223   0.3203   0.4357   0.9748   0.00    0.0    0.00000    0.00000    0.00000   0.00000  0.00000  0.00000  0.00000  0.00000  0.00000
2022/03/25 14:12:28.300   4160644.1400    677712.4338   4771040.9421   2  11   1.0017   0.5265   1.0645   0.2796   0.3795   0.8485   0.00    0.0    0.00000    0.00000    0.00000   0.00000  0.00000  0.00000  0.00000  0.00000  0.00000
2022/03/25 14:12:28.400   4160644.1173    677712.4042   4771040.9195   2  11   0.8988   0.4729   0.9553   0.2513   0.3406   0.7612   0.00    0.0    0.00000    0.00000    0.00000   0.00000  0.00000  0.00000  0.00000  0.00000  0.00000
2022/03/25 14:12:28.500   4160644.1009    677712.3846   4771040.9038   2  11   0.8223   0.4328   0.8740   0.2301   0.3117   0.6963   0.00    0.0    0.00000    0.00000    0.00000   0.00000  0.00000  0.00000  0.00000  0.00000  0.00000
2022/03/25 14:12:28.600   4160644.1081    677712.3707   4771040.9105   2  11   0.7624   0.4015   0.8104   0.2136   0.2891   0.6456   0.00    0.0    0.00000    0.00000    0.00000   0.00000  0.00000  0.00000  0.00000  0.00000  0.00000
2022/03/25 14:12:28.700   4160644.1130    677712.3583   4771040.9158   2  11   0.7140   0.3761   0.7590   0.2001   0.2707   0.6046   0.00    0.0    0.00000    0.00000    0.00000   0.00000  0.00000  0.00000  0.00000  0.00000  0.00000
2022/03/25 14:12:28.800   4160644.1232    677712.3640   4771040.9002   2  11   0.6738   0.3550   0.7162   0.1889   0.2555   0.5704   0.00    0.0    0.00000    0.00000    0.00000   0.00000  0.00000  0.00000  0.00000  0.00000  0.00000
2022/03/25 14:12:28.900   4160644.1285    677712.3682   4771040.8883   2  11   0.6396   0.3371   0.6800   0.1794   0.2426   0.5415   0.00    0.0    0.00000    0.00000    0.00000   0.00000  0.00000  0.00000  0.00000  0.00000  0.00000
2022/03/25 14:12:29.000   4160644.1248    677712.3652   4771040.8955   2  11   0.6102   0.3217   0.6487   0.1712   0.2315   0.5166   0.00    0.0    0.00000    0.00000    0.00000   0.00000  0.00000  0.00000  0.00000  0.00000  0.00000
2022/03/25 14:12:29.100   4160644.1235    677712.3631   4771040.9038   2  11   0.5845   0.3082   0.6214   0.1641   0.2217   0.4948   0.00    0.0    0.00000    0.00000    0.00000   0.00000  0.00000  0.00000  0.00000  0.00000  0.00000
2022/03/25 14:12:29.200   4160644.1342    677712.3681   4771040.9259   2  11   0.5618   0.2963   0.5972   0.1577   0.2131   0.4756   0.00    0.0    0.00000    0.00000    0.00000   0.00000  0.00000  0.00000  0.00000  0.00000  0.00000
2022/03/25 14:12:29.300   4160644.1416    677712.3725   4771040.9451   2  11   0.5415   0.2856   0.5757   0.1521   0.2054   0.4584   0.00    0.0    0.00000    0.00000    0.00000   0.00000  0.00000  0.00000  0.00000  0.00000  0.00000
2022/03/25 14:12:29.400   4160644.1482    677712.3798   4771040.9358   2  11   0.5233   0.2760   0.5563   0.1470   0.1985   0.4430   0.00    0.0    0.00000    0.00000    0.00000   0.00000  0.00000  0.00000  0.00000  0.00000  0.00000
2022/03/25 14:12:29.500   4160644.1553    677712.3865   4771040.9280   2  11   0.5068   0.2674   0.5387   0.1424   0.1923   0.4290   0.00    0.0    0.00000    0.00000    0.00000   0.00000  0.00000  0.00000  0.00000  0.00000  0.00000
2022/03/25 14:12:29.600   4160644.1808    677712.3920   4771040.9209   2  11   0.4918   0.2595   0.5227   0.1382   0.1866   0.4162   0.00    0.0    0.00000    0.00000    0.00000   0.00000  0.00000  0.00000  0.00000  0.00000  0.00000
2022/03/25 14:12:29.700   4160644.2045    677712.4008   4771040.9109   2  11   0.4780   0.2522   0.5081   0.1343   0.1814   0.4046   0.00    0.0    0.00000    0.00000    0.00000   0.00000  0.00000  0.00000  0.00000  0.00000  0.00000
2022/03/25 14:12:29.800   4160644.2108    677712.4158   4771040.8994   2  11   0.4653   0.2455   0.4946   0.1308   0.1766   0.3938   0.00    0.0    0.00000    0.00000    0.00000   0.00000  0.00000  0.00000  0.00000  0.00000  0.00000
2022/03/25 14:12:29.900   4160644.2197    677712.4348   4771040.8863   2  11   0.4536   0.2394   0.4821   0.1275   0.1721   0.3839   0.00    0.0    0.00000    0.00000    0.00000   0.00000  0.00000  0.00000  0.00000  0.00000  0.00000
2022/03/25 14:12:30.000   4160644.2211    677712.4746   4771040.8789   2  11   0.4427   0.2337   0.4705   0.1244   0.1680   0.3746   0.00    0.0    0.00000    0.00000    0.00000   0.00000  0.00000  0.00000  0.00000  0.00000  0.00000
2022/03/25 14:12:30.100   4160644.2327    677712.5127   4771040.8742   2  11   0.4326   0.2283   0.4596   0.1216   0.1640   0.3661   0.00    0.0    0.00000    0.00000    0.00000   0.00000  0.00000  0.00000  0.00000  0.00000  0.00000
2022/03/25 14:12:30.200   4160644.2384    677712.5607   4771040.8501   2  10   0.4231   0.2238   0.4514   0.1190   0.1623   0.3581   0.00    0.0    0.00000    0.00000    0.00000   0.00000  0.00000  0.00000  0.00000  0.00000  0.00000
2022/03/25 14:12:30.300   4160644.2327    677712.6036   4771040.7940   2  10   0.4143   0.2196   0.4437   0.1167   0.1606   0.3507   0.00    0.0    0.00000    0.00000    0.00000   0.00000  0.00000  0.00000  0.00000  0.00000  0.00000
2022/03/25 14:12:30.400   4160644.2218    677712.6370   4771040.7199   2   9   0.4060   0.2159   0.4367   0.1142   0.1596   0.3436   0.00    0.0    0.00000    0.00000    0.00000   0.00000  0.00000  0.00000  0.00000  0.00000  0.00000
2022/03/25 14:12:30.500   4160644.2198    677712.6758   4771040.6472   2   9   0.3982   0.2123   0.4301   0.1118   0.1585   0.3369   0.00    0.0    0.00000    0.00000    0.00000   0.00000  0.00000  0.00000  0.00000  0.00000  0.00000
2022/03/25 14:12:30.600   4160644.2027    677712.7230   4771040.5548   2   9   0.3908   0.2090   0.4238   0.1096   0.1575   0.3305   0.00    0.0    0.00000    0.00000    0.00000   0.00000  0.00000  0.00000  0.00000  0.00000  0.00000
2022/03/25 14:12:30.700   4160644.1937    677712.7790   4771040.4573   2  10   0.3838   0.2056   0.4174   0.1077   0.1558   0.3246   0.00    0.0    0.00000    0.00000    0.00000   0.00000  0.00000  0.00000  0.00000  0.00000  0.00000
2022/03/25 14:12:30.800   4160644.1861    677712.8323   4771040.3360   2  10   0.3771   0.2023   0.4114   0.1059   0.1543   0.3191   0.00    0.0    0.00000    0.00000    0.00000   0.00000  0.00000  0.00000  0.00000  0.00000  0.00000
2022/03/25 14:12:30.900   4160644.1877    677712.9034   4771040.2345   2  10   0.3708   0.1992   0.4056   0.1042   0.1527   0.3138   0.00    0.0    0.00000    0.00000    0.00000   0.00000  0.00000  0.00000  0.00000  0.00000  0.00000
2022/03/25 14:12:31.000   4160644.2063    677712.9807   4771040.1407   2  10   0.3648   0.1963   0.4000   0.1026   0.1513   0.3087   0.00    0.0    0.00000    0.00000    0.00000   0.00000  0.00000  0.00000  0.00000  0.00000  0.00000
2022/03/25 14:12:31.100   4160644.2157    677713.0599   4771040.0182   2  10   0.3591   0.1934   0.3947   0.1011   0.1498   0.3039   0.00    0.0    0.00000    0.00000    0.00000   0.00000  0.00000  0.00000  0.00000  0.00000  0.00000
2022/03/25 14:12:31.200   4160644.2558    677713.1378   4771039.9000   2  10   0.3536   0.1907   0.3896   0.0996   0.1484   0.2993   0.00    0.0    0.00000    0.00000    0.00000   0.00000  0.00000  0.00000  0.00000  0.00000  0.00000
2022/03/25 14:12:31.300   4160644.3028    677713.2426   4771039.8152   2  10   0.3484   0.1881   0.3847   0.0982   0.1470   0.2950   0.00    0.0    0.00000    0.00000    0.00000   0.00000  0.00000  0.00000  0.00000  0.00000  0.00000
2022/03/25 14:12:31.400   4160643.9753    677712.9928   4771038.6466   1  10   0.0068   0.0042   0.0082   0.0024   0.0034   0.0060   0.00    6.2    0.00000    0.00000    0.00000   0.00000  0.00000  0.00000  0.00000  0.00000  0.00000
2022/03/25 14:12:31.500   4160644.0336    677713.1124   4771038.5711   1  10   0.0067   0.0039   0.0083   0.0017   0.0031   0.0058   0.00    4.7    0.00000    0.00000    0.00000   0.00000  0.00000  0.00000  0.00000  0.00000  0.00000
2022/03/25 14:12:31.600   4160644.0996    677713.2182   4771038.4479   1   9   0.0069   0.0037   0.0088   0.0013   0.0042   0.0057   0.00   13.0    0.00000    0.00000    0.00000   0.00000  0.00000  0.00000  0.00000  0.00000  0.00000
2022/03/25 14:12:31.700   4160644.1543    677713.3692   4771038.3697   1   9   0.0069   0.0044   0.0089   0.0018   0.0040   0.0057   0.00   13.6    0.00000    0.00000    0.00000   0.00000  0.00000  0.00000  0.00000  0.00000  0.00000
2022/03/25 14:12:31.800   4160644.2169    677713.5363   4771038.2894   1   9   0.0072   0.0045   0.0088   0.0025   0.0037   0.0057   0.00   13.9    0.00000    0.00000    0.00000   0.00000  0.00000  0.00000  0.00000  0.00000  0.00000
2022/03/25 14:12:31.900   4160644.2714    677713.7178   4771038.2041   1   9   0.0069   0.0039   0.0088  -0.0007   0.0044   0.0058   0.00   14.4    0.00000    0.00000    0.00000   0.00000  0.00000  0.00000  0.00000  0.00000  0.00000
2022/03/25 14:12:32.000   4160644.3520    677713.9135   4771038.1184   1   9   0.0069   0.0041   0.0088   0.0016   0.0040   0.0058   0.00   15.4    0.00000    0.00000    0.00000   0.00000  0.00000  0.00000  0.00000  0.00000  0.00000
2022/03/25 14:12:32.100   4160644.4148    677714.1263   4771038.0118   1   9   0.0066   0.0041   0.0086  -0.0006   0.0041   0.0057   0.00   16.1    0.00000    0.00000    0.00000   0.00000  0.00000  0.00000  0.00000  0.00000  0.00000
2022/03/25 14:12:32.200   4160644.4774    677714.3452   4771037.8953   1   9   0.0067   0.0042   0.0088   0.0024   0.0037   0.0056   0.00   16.8    0.00000    0.00000    0.00000   0.00000  0.00000  0.00000  0.00000  0.00000  0.00000
2022/03/25 14:12:32.300   4160644.5534    677714.5880   4771037.8039   1   9   0.0065   0.0037   0.0088   0.0015   0.0039   0.0059   0.00   17.7    0.00000    0.00000    0.00000   0.00000  0.00000  0.00000  0.00000  0.00000  0.00000
2022/03/25 14:12:32.400   4160644.6299    677714.8362   4771037.7032   1   9   0.0066   0.0031   0.0087  -0.0009   0.0041   0.0057   0.00   18.6    0.00000    0.00000    0.00000   0.00000  0.00000  0.00000  0.00000  0.00000  0.00000
2022/03/25 14:12:32.500   4160644.7009    677715.0991   4771037.5924   1   9   0.0067   0.0035   0.0089   0.0008   0.0042   0.0055   0.00   19.6    0.00000    0.00000    0.00000   0.00000  0.00000  0.00000  0.00000  0.00000  0.00000
2022/03/25 14:12:32.600   4160644.7814    677715.3639   4771037.4633   1   9   0.0071   0.0042   0.0087   0.0023   0.0039   0.0057   0.00   20.6    0.00000    0.00000    0.00000   0.00000  0.00000  0.00000  0.00000  0.00000  0.00000
2022/03/25 14:12:32.700   4160644.8744    677715.6388   4771037.3391   1   9   0.0069   0.0046   0.0088   0.0022   0.0039   0.0056   0.00   21.8    0.00000    0.00000    0.00000   0.00000  0.00000  0.00000  0.00000  0.00000  0.00000
2022/03/25 14:12:32.800   4160644.9578    677715.9251   4771037.2104   1   9   0.0069   0.0044   0.0087   0.0022   0.0040   0.0058   0.00   22.6    0.00000    0.00000    0.00000   0.00000  0.00000  0.00000  0.00000  0.00000  0.00000
2022/03/25 14:12:32.900   4160645.0207    677716.2282   4771037.0677   1   9   0.0066   0.0041   0.0087   0.0019   0.0043   0.0054   0.00   23.1    0.00000    0.00000    0.00000   0.00000  0.00000  0.00000  0.00000  0.00000  0.00000
2022/03/25 14:12:33.000   4160645.1283    677716.5189   4771036.9160   1   9   0.0069   0.0042   0.0087   0.0023   0.0039   0.0058   0.00   23.6    0.00000    0.00000    0.00000   0.00000  0.00000  0.00000  0.00000  0.00000  0.00000
2022/03/25 14:12:33.100   4160645.2446    677716.8329   4771036.7925   1   9   0.0070   0.0040   0.0089   0.0019   0.0040   0.0056   0.00   24.4    0.00000    0.00000    0.00000   0.00000  0.00000  0.00000  0.00000  0.00000  0.00000
2022/03/25 14:12:33.200   4160645.3589    677717.1533   4771036.6455   1   9   0.0067   0.0042   0.0088   0.0014   0.0043   0.0056   0.00   24.5    0.00000    0.00000    0.00000   0.00000  0.00000  0.00000  0.00000  0.00000  0.00000
2022/03/25 14:12:33.300   4160645.4567    677717.4843   4771036.4787   1   9   0.0069   0.0044   0.0088   0.0017   0.0041   0.0057   0.00   25.0    0.00000    0.00000    0.00000   0.00000  0.00000  0.00000  0.00000  0.00000  0.00000
2022/03/25 14:12:33.400   4160645.5873    677717.8151   4771036.3168   1  10   0.0069   0.0038   0.0087   0.0021   0.0040   0.0058   0.00   40.8    0.00000    0.00000    0.00000   0.00000  0.00000  0.00000  0.00000  0.00000  0.00000
2022/03/25 14:12:33.500   4160645.7138    677718.1478   4771036.1380   1  10   0.0068   0.0040   0.0083   0.0009   0.0041   0.0058   0.00   44.2    0.00000    0.00000    0.00000   0.00000  0.00000  0.00000  0.00000  0.00000  0.00000
2022/03/25 14:12:33.600   4160645.8598    677718.4943   4771035.9666   1  10   0.0069   0.0042   0.0081   0.0018   0.0032   0.0053   0.00    6.3    0.00000    0.00000    0.00000   0.00000  0.00000  0.00000  0.00000  0.00000  0.00000
2022/03/25 14:12:33.700   4160645.9936    677718.8543   4771035.7855   1  10   0.0074   0.0039   0.0081  -0.0020   0.0035   0.0053   0.00    7.5    0.00000    0.00000    0.00000   0.00000  0.00000  0.00000  0.00000  0.00000  0.00000
2022/03/25 14:12:33.800   4160646.1577    677719.2083   4771035.5993   1   9   0.0074   0.0045   0.0080   0.0017   0.0030   0.0053   0.00    8.2    0.00000    0.00000    0.00000   0.00000  0.00000  0.00000  0.00000  0.00000  0.00000
2022/03/25 14:12:33.900   4160646.2942    677719.5796   4771035.3900   1   9   0.0074   0.0043   0.0080  -0.0007   0.0032   0.0054   0.00    9.2    0.00000    0.00000    0.00000   0.00000  0.00000  0.00000  0.00000  0.00000  0.00000
2022/03/25 14:12:34.000   4160646.4418    677719.9548   4771035.1930   1  10   0.0069   0.0038   0.0079   0.0013   0.0035   0.0057   0.00    4.6    0.00000    0.00000    0.00000   0.00000  0.00000  0.00000  0.00000  0.00000  0.00000
2022/03/25 14:12:34.100   4160646.6028    677720.3215   4771034.9905   1  10   0.0080   0.0039   0.0079  -0.0031   0.0038   0.0054   0.00   12.7    0.00000    0.00000    0.00000   0.00000  0.00000  0.00000  0.00000  0.00000  0.00000
2022/03/25 14:12:34.200   4160646.7773    677720.6919   4771034.7744   1   9   0.0081   0.0045   0.0079  -0.0025   0.0037   0.0054   0.00   14.0    0.00000    0.00000    0.00000   0.00000  0.00000  0.00000  0.00000  0.00000  0.00000
2022/03/25 14:12:34.300   4160646.9494    677721.0566   4771034.5525   1   9   0.0081   0.0045   0.0080  -0.0028   0.0035   0.0054   0.00   15.6    0.00000    0.00000    0.00000   0.00000  0.00000  0.00000  0.00000  0.00000  0.00000
2022/03/25 14:12:34.400   4160647.1326    677721.4270   4771034.3440   1   9   0.0078   0.0042   0.0077  -0.0019   0.0031   0.0058   0.00    5.2    0.00000    0.00000    0.00000   0.00000  0.00000  0.00000  0.00000  0.00000  0.00000
2022/03/25 14:12:34.500   4160647.3115    677721.7933   4771034.1125   1   9   0.0077   0.0042   0.0075  -0.0021   0.0030   0.0060   0.00   10.1    0.00000    0.00000    0.00000   0.00000  0.00000  0.00000  0.00000  0.00000  0.00000
2022/03/25 14:12:34.600   4160647.4979    677722.1583   4771033.8905   1   9   0.0080   0.0036   0.0076  -0.0017   0.0033   0.0059   0.00   14.2    0.00000    0.00000    0.00000   0.00000  0.00000  0.00000  0.00000  0.00000  0.00000
2022/03/25 14:12:34.700   4160647.6879    677722.5160   4771033.6639   1   9   0.0078   0.0035   0.0077  -0.0028   0.0034   0.0057   0.00   19.6    0.00000    0.00000    0.00000   0.00000  0.00000  0.00000  0.00000  0.00000  0.00000
2022/03/25 14:12:34.800   4160647.8861    677722.8699   4771033.4400   1   9   0.0081   0.0040   0.0078   0.0007   0.0032   0.0057   0.00   26.6    0.00000    0.00000    0.00000   0.00000  0.00000  0.00000  0.00000  0.00000  0.00000
2022/03/25 14:12:34.900   4160648.0783    677723.2269   4771033.2128   1   9   0.0079   0.0040   0.0077  -0.0020   0.0031   0.0059   0.00   31.4    0.00000    0.00000    0.00000   0.00000  0.00000  0.00000  0.00000  0.00000  0.00000
2022/03/25 14:12:35.000   4160648.2694    677723.5754   4771032.9736   1   9   0.0078   0.0038   0.0083  -0.0027   0.0037   0.0056   0.00   37.0    0.00000    0.00000    0.00000   0.00000  0.00000  0.00000  0.00000  0.00000  0.00000
2022/03/25 14:12:35.100   4160648.4759    677723.9230   4771032.7340   1   9   0.0076   0.0040   0.0083  -0.0012   0.0039   0.0055   0.00   40.9    0.00000    0.00000    0.00000   0.00000  0.00000  0.00000  0.00000  0.00000  0.00000
2022/03/25 14:12:35.200   4160648.6925    677724.2602   4771032.4838   1   9   0.0072   0.0034   0.0083  -0.0019   0.0038   0.0057   0.00    5.5    0.00000    0.00000    0.00000   0.00000  0.00000  0.00000  0.00000  0.00000  0.00000
2022/03/25 14:12:35.300   4160648.9106    677724.5979   4771032.2337   1   9   0.0072   0.0039   0.0084  -0.0007   0.0035   0.0057   0.00    4.7    0.00000    0.00000    0.00000   0.00000  0.00000  0.00000  0.00000  0.00000  0.00000
2022/03/25 14:12:35.400   4160649.1027    677724.9580   4771032.0103   2   9   0.0136   0.0070   0.0137  -0.0059   0.0058   0.0086   0.00    3.0    0.00000    0.00000    0.00000   0.00000  0.00000  0.00000  0.00000  0.00000  0.00000
2022/03/25 14:12:35.500   4160649.2960    677725.3016   4771031.7622   2   9   0.0140   0.0066   0.0137  -0.0064   0.0061   0.0085   0.00    2.9    0.00000    0.00000    0.00000   0.00000  0.00000  0.00000  0.00000  0.00000  0.00000
2022/03/25 14:12:35.600   4160649.5472    677725.6092   4771031.4774   1   8   0.0080   0.0044   0.0083  -0.0013   0.0037   0.0056   0.00    3.4    0.00000    0.00000    0.00000   0.00000  0.00000  0.00000  0.00000  0.00000  0.00000
2022/03/25 14:12:35.700   4160649.7482    677725.9686   4771031.2497   1   8   0.0079   0.0040   0.0083  -0.0018   0.0039   0.0056   0.00    5.5    0.00000    0.00000    0.00000   0.00000  0.00000  0.00000  0.00000  0.00000  0.00000
2022/03/25 14:12:35.800   4160649.9732    677726.2987   4771030.9944   1   8   0.0081   0.0050   0.0090  -0.0026   0.0045   0.0049   0.00   45.7    0.00000    0.00000    0.00000   0.00000  0.00000  0.00000  0.00000  0.00000  0.00000
2022/03/25 14:12:35.900   4160650.1786    677726.6509   4771030.7605   1   8   0.0078   0.0043   0.0083  -0.0018   0.0034   0.0058   0.00    3.5    0.00000    0.00000    0.00000   0.00000  0.00000  0.00000  0.00000  0.00000  0.00000
2022/03/25 14:12:36.000   4160650.4070    677726.9537   4771030.4619   1   8   0.0078   0.0045   0.0083   0.0008   0.0034   0.0057   0.00    3.0    0.00000    0.00000    0.00000   0.00000  0.00000  0.00000  0.00000  0.00000  0.00000
2022/03/25 14:12:36.100   4160650.6324    677727.3103   4771030.2324   1   8   0.0078   0.0043   0.0083  -0.0019   0.0034   0.0058   0.00    6.0    0.00000    0.00000    0.00000   0.00000  0.00000  0.00000  0.00000  0.00000  0.00000
2022/03/25 14:12:36.200   4160650.8337    677727.6604   4771029.9913   1   8   0.0080   0.0045   0.0083  -0.0011   0.0037   0.0056   0.00    4.4    0.00000    0.00000    0.00000   0.00000  0.00000  0.00000  0.00000  0.00000  0.00000
2022/03/25 14:12:36.300   4160651.0356    677727.9589   4771029.6803   1   8   0.0081   0.0048   0.0088  -0.0026   0.0046   0.0051   0.00   38.3    0.00000    0.00000    0.00000   0.00000  0.00000  0.00000  0.00000  0.00000  0.00000
2022/03/25 14:12:36.400   4160651.2012    677728.2661   4771029.3779   1   8   0.0078   0.0042   0.0084  -0.0014   0.0035   0.0056   0.00    4.2    0.00000    0.00000    0.00000   0.00000  0.00000  0.00000  0.00000  0.00000  0.00000
2022/03/25 14:12:36.500   4160651.5277    677728.6575   4771029.2114   1   8   0.0089   0.0057   0.0099   0.0018   0.0057   0.0063   0.00   80.8    0.00000    0.00000    0.00000   0.00000  0.00000  0.00000  0.00000  0.00000  0.00000
2022/03/25 14:12:36.600   4160651.7398    677729.0108   4771028.9612   1   7   0.0091   0.0059   0.0101   0.0017   0.0058   0.0062   0.00   83.7    0.00000    0.00000    0.00000   0.00000  0.00000  0.00000  0.00000  0.00000  0.00000
2022/03/25 14:12:36.700   4160651.9603    677729.3325   4771028.6911   1   8   0.0082   0.0053   0.0098   0.0032   0.0054   0.0070   0.00    6.4    0.00000    0.00000    0.00000   0.00000  0.00000  0.00000  0.00000  0.00000  0.00000
2022/03/25 14:12:36.800   4160652.1962    677729.6623   4771028.4298   1   8   0.0085   0.0052   0.0094  -0.0017   0.0051   0.0059   0.00   81.0    0.00000    0.00000    0.00000   0.00000  0.00000  0.00000  0.00000  0.00000  0.00000
2022/03/25 14:12:36.900   4160652.4000    677730.0037   4771028.1549   1   8   0.0085   0.0052   0.0092  -0.0019   0.0050   0.0055   0.00   81.9    0.00000    0.00000    0.00000   0.00000  0.00000  0.00000  0.00000  0.00000  0.00000
2022/03/25 14:12:37.000   4160652.6311    677730.3637   4771027.9214   1   7   0.0089   0.0058   0.0100   0.0020   0.0057   0.0064   0.00   81.1    0.00000    0.00000    0.00000   0.00000  0.00000  0.00000  0.00000  0.00000  0.00000
2022/03/25 14:12:37.100   4160652.8608    677730.7021   4771027.6578   1   7   0.0090   0.0057   0.0101   0.0020   0.0057   0.0065   0.00   81.9    0.00000    0.00000    0.00000   0.00000  0.00000  0.00000  0.00000  0.00000  0.00000
2022/03/25 14:12:37.200   4160653.0986    677731.0468   4771027.4071   1   7   0.0089   0.0059   0.0099   0.0019   0.0056   0.0066   0.00   83.9    0.00000    0.00000    0.00000   0.00000  0.00000  0.00000  0.00000  0.00000  0.00000
2022/03/25 14:12:37.300   4160653.3195    677731.3842   4771027.1482   1   7   0.0089   0.0055   0.0100   0.0016   0.0059   0.0066   0.00   83.6    0.00000    0.00000    0.00000   0.00000  0.00000  0.00000  0.00000  0.00000  0.00000
2022/03/25 14:12:37.400   4160653.5628    677731.7238   4771026.8915   1   7   0.0090   0.0057   0.0099   0.0020   0.0058   0.0066   0.00   84.4    0.00000    0.00000    0.00000   0.00000  0.00000  0.00000  0.00000  0.00000  0.00000
2022/03/25 14:12:37.500   4160653.7866    677732.0739   4771026.6327   1   7   0.0089   0.0057   0.0099   0.0018   0.0059   0.0066   0.00   84.9    0.00000    0.00000    0.00000   0.00000  0.00000  0.00000  0.00000  0.00000  0.00000
2022/03/25 14:12:37.600   4160654.0119    677732.4283   4771026.3676   1   9   0.0089   0.0047   0.0083   0.0027   0.0036   0.0067   0.00    4.5    0.00000    0.00000    0.00000   0.00000  0.00000  0.00000  0.00000  0.00000  0.00000
2022/03/25 14:12:37.700   4160654.2425    677732.7686   4771026.1094   1   9   0.0089   0.0044   0.0082   0.0021   0.0040   0.0069   0.00    8.4    0.00000    0.00000    0.00000   0.00000  0.00000  0.00000  0.00000  0.00000  0.00000
2022/03/25 14:12:37.800   4160654.4800    677733.1179   4771025.8483   1   9   0.0090   0.0047   0.0083   0.0026   0.0038   0.0068   0.00   12.4    0.00000    0.00000    0.00000   0.00000  0.00000  0.00000  0.00000  0.00000  0.00000
2022/03/25 14:12:37.900   4160654.7183    677733.4714   4771025.5971   1   9   0.0089   0.0044   0.0084   0.0023   0.0040   0.0066   0.00   15.3    0.00000    0.00000    0.00000   0.00000  0.00000  0.00000  0.00000  0.00000  0.00000
2022/03/25 14:12:38.000   4160654.9410    677733.8142   4771025.3285   1   9   0.0088   0.0044   0.0083   0.0023   0.0039   0.0068   0.00   18.4    0.00000    0.00000    0.00000   0.00000  0.00000  0.00000  0.00000  0.00000  0.00000
2022/03/25 14:12:38.100   4160655.1576    677734.1557   4771025.0498   1   9   0.0087   0.0045   0.0082   0.0027   0.0038   0.0069   0.00   21.5    0.00000    0.00000    0.00000   0.00000  0.00000  0.00000  0.00000  0.00000  0.00000
2022/03/25 14:12:38.200   4160655.4077    677734.5200   4771024.7867   1   8   0.0101   0.0047   0.0085   0.0037   0.0045   0.0075   0.00   26.3    0.00000    0.00000    0.00000   0.00000  0.00000  0.00000  0.00000  0.00000  0.00000
2022/03/25 14:12:38.300   4160655.6507    677734.8661   4771024.5341   1   8   0.0101   0.0047   0.0086   0.0038   0.0046   0.0074   0.00   30.5    0.00000    0.00000    0.00000   0.00000  0.00000  0.00000  0.00000  0.00000  0.00000
2022/03/25 14:12:38.400   4160655.8570    677735.2033   4771024.2518   1   8   0.0135   0.0062   0.0097   0.0071   0.0061   0.0099   0.00   34.0    0.00000    0.00000    0.00000   0.00000  0.00000  0.00000  0.00000  0.00000  0.00000
2022/03/25 14:12:38.500   4160656.0945    677735.5587   4771023.9899   1   8   0.0135   0.0062   0.0097   0.0070   0.0061   0.0098   0.00   35.5    0.00000    0.00000    0.00000   0.00000  0.00000  0.00000  0.00000  0.00000  0.00000
2022/03/25 14:12:38.600   4160656.3360    677735.9175   4771023.7332   1   8   0.0134   0.0063   0.0097   0.0069   0.0061   0.0098   0.00   34.0    0.00000    0.00000    0.00000   0.00000  0.00000  0.00000  0.00000  0.00000  0.00000
2022/03/25 14:12:38.700   4160656.5467    677736.2520   4771023.4438   1   7   0.0138   0.0067   0.0105   0.0076   0.0068   0.0105   0.00   57.0    0.00000    0.00000    0.00000   0.00000  0.00000  0.00000  0.00000  0.00000  0.00000
2022/03/25 14:12:38.800   4160656.8025    677736.5991   4771023.1903   1   7   0.0142   0.0072   0.0114   0.0081   0.0077   0.0111   0.00   61.8    0.00000    0.00000    0.00000   0.00000  0.00000  0.00000  0.00000  0.00000  0.00000
2022/03/25 14:12:38.900   4160657.0293    677736.9476   4771022.9134   1   7   0.0142   0.0072   0.0114   0.0081   0.0076   0.0111   0.00   68.3    0.00000    0.00000    0.00000   0.00000  0.00000  0.00000  0.00000  0.00000  0.00000
2022/03/25 14:12:39.000   4160657.2754    677737.3141   4771022.6623   1   7   0.0141   0.0066   0.0106   0.0078   0.0068   0.0109   0.00    8.0    0.00000    0.00000    0.00000   0.00000  0.00000  0.00000  0.00000  0.00000  0.00000
2022/03/25 14:12:39.100   4160657.5096    677737.6639   4771022.3881   1   7   0.0141   0.0064   0.0106   0.0079   0.0069   0.0109   0.00   16.4    0.00000    0.00000    0.00000   0.00000  0.00000  0.00000  0.00000  0.00000  0.00000
2022/03/25 14:12:39.200   4160657.7344    677738.0004   4771022.1062   1   7   0.0141   0.0066   0.0107   0.0079   0.0068   0.0108   0.00   27.2    0.00000    0.00000    0.00000   0.00000  0.00000  0.00000  0.00000  0.00000  0.00000
2022/03/25 14:12:39.300   4160657.9743    677738.3569   4771021.8278   1   7   0.0141   0.0065   0.0106   0.0078   0.0069   0.0108   0.00   35.9    0.00000    0.00000    0.00000   0.00000  0.00000  0.00000  0.00000  0.00000  0.00000
2022/03/25 14:12:39.400   4160658.2234    677738.7214   4771021.5806   1   8   0.0142   0.0066   0.0107   0.0078   0.0069   0.0109   0.00   40.0    0.00000    0.00000    0.00000   0.00000  0.00000  0.00000  0.00000  0.00000  0.00000
2022/03/25 14:12:39.500   4160658.4656    677739.0869   4771021.3233   1   8   0.0118   0.0055   0.0097   0.0059   0.0055   0.0091   0.00   42.4    0.00000    0.00000    0.00000   0.00000  0.00000  0.00000  0.00000  0.00000  0.00000
2022/03/25 14:12:39.600   4160658.7123    677739.4558   4771021.0876   1   8   0.0111   0.0056   0.0094   0.0050   0.0049   0.0083   0.00   36.2    0.00000    0.00000    0.00000   0.00000  0.00000  0.00000  0.00000  0.00000  0.00000
2022/03/25 14:12:39.700   4160658.9587    677739.8305   4771020.8443   1   8   0.0105   0.0051   0.0096   0.0044   0.0056   0.0081   0.00   17.2    0.00000    0.00000    0.00000   0.00000  0.00000  0.00000  0.00000  0.00000  0.00000
2022/03/25 14:12:39.800   4160659.1753    677740.1075   4771020.4614   1   8   0.0082   0.0046   0.0090   0.0033   0.0046   0.0068   0.00    4.2    0.00000    0.00000    0.00000   0.00000  0.00000  0.00000  0.00000  0.00000  0.00000
2022/03/25 14:12:39.900   4160659.4085    677740.4660   4771020.1912   1   8   0.0083   0.0050   0.0098   0.0030   0.0057   0.0069   0.00    8.2    0.00000    0.00000    0.00000   0.00000  0.00000  0.00000  0.00000  0.00000  0.00000
2022/03/25 14:12:40.000   4160659.6603    677740.8308   4771019.9292   1   8   0.0082   0.0049   0.0090   0.0035   0.0044   0.0068   0.00    4.6    0.00000    0.00000    0.00000   0.00000  0.00000  0.00000  0.00000  0.00000  0.00000
2022/03/25 14:12:40.100   4160659.9057    677741.1960   4771019.6688   2   8   0.0119   0.0067   0.0127   0.0026   0.0069   0.0091   0.00    1.2    0.00000    0.00000    0.00000   0.00000  0.00000  0.00000  0.00000  0.00000  0.00000
2022/03/25 14:12:40.200   4160660.1371    677741.5245   4771019.3699   2   8   0.0119   0.0070   0.0130   0.0025   0.0073   0.0091   0.00    2.9    0.00000    0.00000    0.00000   0.00000  0.00000  0.00000  0.00000  0.00000  0.00000
2022/03/25 14:12:40.300   4160660.3780    677741.8670   4771019.0918   1   8   0.0083   0.0052   0.0099   0.0027   0.0057   0.0069   0.00   32.7    0.00000    0.00000    0.00000   0.00000  0.00000  0.00000  0.00000  0.00000  0.00000
2022/03/25 14:12:40.400   4160660.6259    677742.2241   4771018.8305   1   8   0.0082   0.0055   0.0099   0.0037   0.0054   0.0068   0.00   34.0    0.00000    0.00000    0.00000   0.00000  0.00000  0.00000  0.00000  0.00000  0.00000
2022/03/25 14:12:40.500   4160660.8679    677742.5683   4771018.5584   1   8   0.0082   0.0054   0.0099   0.0026   0.0057   0.0069   0.00   35.1    0.00000    0.00000    0.00000   0.00000  0.00000  0.00000  0.00000  0.00000  0.00000
2022/03/25 14:12:40.600   4160661.0976    677742.9088   4771018.2962   1   9   0.0083   0.0053   0.0099   0.0035   0.0055   0.0069   0.00   36.6    0.00000    0.00000    0.00000   0.00000  0.00000  0.00000  0.00000  0.00000  0.00000
2022/03/25 14:12:40.700   4160661.3322    677743.2457   4771018.0220   1   9   0.0079   0.0052   0.0097   0.0028   0.0049   0.0064   0.00   38.9    0.00000    0.00000    0.00000   0.00000  0.00000  0.00000  0.00000  0.00000  0.00000
2022/03/25 14:12:40.800   4160661.5811    677743.5945   4771017.7580   1   9   0.0075   0.0046   0.0092   0.0018   0.0048   0.0060   0.00   11.6    0.00000    0.00000    0.00000   0.00000  0.00000  0.00000  0.00000  0.00000  0.00000
2022/03/25 14:12:40.900   4160661.8276    677743.9435   4771017.4715   1   9   0.0076   0.0046   0.0092   0.0021   0.0049   0.0060   0.00   15.2    0.00000    0.00000    0.00000   0.00000  0.00000  0.00000  0.00000  0.00000  0.00000
2022/03/25 14:12:41.000   4160662.0906    677744.2928   4771017.1916   1   9   0.0077   0.0050   0.0092   0.0026   0.0046   0.0061   0.00   18.6    0.00000    0.00000    0.00000   0.00000  0.00000  0.00000  0.00000  0.00000  0.00000
2022/03/25 14:12:41.100   4160662.3451    677744.6404   4771016.9115   1   9   0.0076   0.0049   0.0092   0.0017   0.0045   0.0060   0.00   20.5    0.00000    0.00000    0.00000   0.00000  0.00000  0.00000  0.00000  0.00000  0.00000
2022/03/25 14:12:41.200   4160662.6068    677744.9869   4771016.6318   1   9   0.0072   0.0041   0.0091   0.0021   0.0050   0.0062   0.00    9.4    0.00000    0.00000    0.00000   0.00000  0.00000  0.00000  0.00000  0.00000  0.00000
2022/03/25 14:12:41.300   4160662.8605    677745.3349   4771016.3614   1   9   0.0073   0.0044   0.0092   0.0027   0.0045   0.0062   0.00    5.2    0.00000    0.00000    0.00000   0.00000  0.00000  0.00000  0.00000  0.00000  0.00000
2022/03/25 14:12:41.400   4160663.1198    677745.6734   4771016.0665   1   9   0.0071   0.0043   0.0091   0.0030   0.0047   0.0064   0.00    8.0    0.00000    0.00000    0.00000   0.00000  0.00000  0.00000  0.00000  0.00000  0.00000
2022/03/25 14:12:41.500   4160663.3823    677746.0086   4771015.7772   1   9   0.0071   0.0039   0.0091   0.0024   0.0045   0.0062   0.00   11.5    0.00000    0.00000    0.00000   0.00000  0.00000  0.00000  0.00000  0.00000  0.00000
2022/03/25 14:12:41.600   4160663.6626    677746.3623   4771015.4965   1  10   0.0072   0.0043   0.0092   0.0026   0.0048   0.0061   0.00   14.8    0.00000    0.00000    0.00000   0.00000  0.00000  0.00000  0.00000  0.00000  0.00000
2022/03/25 14:12:41.700   4160663.9396    677746.7218   4771015.1894   1  10   0.0071   0.0041   0.0087   0.0028   0.0044   0.0062   0.00   16.7    0.00000    0.00000    0.00000   0.00000  0.00000  0.00000  0.00000  0.00000  0.00000
2022/03/25 14:12:41.800   4160664.2218    677747.0803   4771014.8975   1  11   0.0071   0.0042   0.0079   0.0030   0.0034   0.0064   0.00    4.5    0.00000    0.00000    0.00000   0.00000  0.00000  0.00000  0.00000  0.00000  0.00000
2022/03/25 14:12:41.900   4160664.5228    677747.4436   4771014.5962   1  11   0.0073   0.0041   0.0079   0.0031   0.0030   0.0062   0.00    6.5    0.00000    0.00000    0.00000   0.00000  0.00000  0.00000  0.00000  0.00000  0.00000
2022/03/25 14:12:42.000   4160664.8257    677747.8065   4771014.3004   1  11   0.0071   0.0044   0.0079   0.0033   0.0031   0.0062   0.00    7.4    0.00000    0.00000    0.00000   0.00000  0.00000  0.00000  0.00000  0.00000  0.00000
2022/03/25 14:12:42.100   4160665.1159    677748.1768   4771013.9750   1  11   0.0073   0.0041   0.0081   0.0026   0.0034   0.0062   0.00    7.5    0.00000    0.00000    0.00000   0.00000  0.00000  0.00000  0.00000  0.00000  0.00000
2022/03/25 14:12:42.200   4160665.3879    677748.5347   4771013.6329   1   9   0.0084   0.0045   0.0085   0.0042   0.0046   0.0071   0.00   21.5    0.00000    0.00000    0.00000   0.00000  0.00000  0.00000  0.00000  0.00000  0.00000
2022/03/25 14:12:42.300   4160665.6939    677748.9103   4771013.3090   1   9   0.0086   0.0052   0.0095   0.0048   0.0054   0.0076   0.00   23.4    0.00000    0.00000    0.00000   0.00000  0.00000  0.00000  0.00000  0.00000  0.00000
2022/03/25 14:12:42.400   4160666.0090    677749.2885   4771012.9911   1   9   0.0077   0.0044   0.0089   0.0038   0.0045   0.0069   0.00   23.6    0.00000    0.00000    0.00000   0.00000  0.00000  0.00000  0.00000  0.00000  0.00000
2022/03/25 14:12:42.500   4160666.3005    677749.6569   4771012.6692   1   9   0.0077   0.0044   0.0090   0.0038   0.0044   0.0071   0.00   25.1    0.00000    0.00000    0.00000   0.00000  0.00000  0.00000  0.00000  0.00000  0.00000
2022/03/25 14:12:42.600   4160666.5873    677750.0278   4771012.3471   1   9   0.0078   0.0046   0.0090   0.0036   0.0045   0.0070   0.00   33.1    0.00000    0.00000    0.00000   0.00000  0.00000  0.00000  0.00000  0.00000  0.00000
2022/03/25 14:12:42.700   4160666.8698    677750.3880   4771011.9950   1   9   0.0078   0.0044   0.0090   0.0035   0.0045   0.0069   0.00   40.6    0.00000    0.00000    0.00000   0.00000  0.00000  0.00000  0.00000  0.00000  0.00000
2022/03/25 14:12:42.800   4160667.1871    677750.7592   4771011.6512   1   9   0.0078   0.0046   0.0090   0.0037   0.0047   0.0069   0.00   43.0    0.00000    0.00000    0.00000   0.00000  0.00000  0.00000  0.00000  0.00000  0.00000
2022/03/25 14:12:42.900   4160667.5043    677751.1378   4771011.2880   1   9   0.0078   0.0048   0.0098   0.0034   0.0056   0.0071   0.00   58.1    0.00000    0.00000    0.00000   0.00000  0.00000  0.00000  0.00000  0.00000  0.00000
2022/03/25 14:12:43.000   4160667.8349    677751.5142   4771010.9336   1   8   0.0078   0.0052   0.0099   0.0038   0.0053   0.0068   0.00   62.9    0.00000    0.00000    0.00000   0.00000  0.00000  0.00000  0.00000  0.00000  0.00000
2022/03/25 14:12:43.100   4160668.1563    677751.9212   4771010.6049   1   8   0.0083   0.0051   0.0099   0.0033   0.0056   0.0067   0.00   87.9    0.00000    0.00000    0.00000   0.00000  0.00000  0.00000  0.00000  0.00000  0.00000
2022/03/25 14:12:43.200   4160668.4946    677752.3119   4771010.2612   1   7   0.0090   0.0060   0.0100   0.0019   0.0056   0.0065   0.00   95.3    0.00000    0.00000    0.00000   0.00000  0.00000  0.00000  0.00000  0.00000  0.00000
2022/03/25 14:12:43.300   4160668.8236    677752.6764   4771009.8998   1   7   0.0090   0.0057   0.0099   0.0021   0.0058   0.0065   0.00   94.2    0.00000    0.00000    0.00000   0.00000  0.00000  0.00000  0.00000  0.00000  0.00000
2022/03/25 14:12:43.400   4160669.1493    677753.0443   4771009.5280   1   7   0.0090   0.0057   0.0100   0.0016   0.0058   0.0063   0.00   93.8    0.00000    0.00000    0.00000   0.00000  0.00000  0.00000  0.00000  0.00000  0.00000
2022/03/25 14:12:43.500   4160669.4928    677753.4168   4771009.1971   1   7   0.0090   0.0056   0.0100   0.0014   0.0058   0.0065   0.00   95.0    0.00000    0.00000    0.00000   0.00000  0.00000  0.00000  0.00000  0.00000  0.00000
2022/03/25 14:12:43.600   4160669.8038    677753.7748   4771008.7986   1   8   0.0089   0.0053   0.0095   0.0018   0.0051   0.0066   0.00   95.5    0.00000    0.00000    0.00000   0.00000  0.00000  0.00000  0.00000  0.00000  0.00000
2022/03/25 14:12:43.700   4160670.1440    677754.1655   4771008.4715   1   7   0.0090   0.0057   0.0100   0.0018   0.0057   0.0065   0.00   96.7    0.00000    0.00000    0.00000   0.00000  0.00000  0.00000  0.00000  0.00000  0.00000
2022/03/25 14:12:43.800   4160670.4937    677754.5402   4771008.1062   1   7   0.0090   0.0057   0.0101   0.0004   0.0057   0.0064   0.00   98.3    0.00000    0.00000    0.00000   0.00000  0.00000  0.00000  0.00000  0.00000  0.00000
2022/03/25 14:12:43.900   4160670.8553    677754.9158   4771007.7356   1   7   0.0090   0.0056   0.0100   0.0014   0.0058   0.0064   0.00   98.2    0.00000    0.00000    0.00000   0.00000  0.00000  0.00000  0.00000  0.00000  0.00000
2022/03/25 14:12:44.000   4160671.1971    677755.2793   4771007.3660   1   7   0.0091   0.0057   0.0099   0.0015   0.0058   0.0065   0.00   97.7    0.00000    0.00000    0.00000   0.00000  0.00000  0.00000  0.00000  0.00000  0.00000
2022/03/25 14:12:44.100   4160671.5199    677755.6401   4771007.0005   1   7   0.0089   0.0055   0.0099   0.0017   0.0059   0.0065   0.00  100.6    0.00000    0.00000    0.00000   0.00000  0.00000  0.00000  0.00000  0.00000  0.00000
2022/03/25 14:12:44.200   4160671.8772    677755.9843   4771006.6137   1   7   0.0089   0.0056   0.0099   0.0021   0.0056   0.0066   0.00   97.7    0.00000    0.00000    0.00000   0.00000  0.00000  0.00000  0.00000  0.00000  0.00000
2022/03/25 14:12:44.300   4160672.2279    677756.3496   4771006.2556   1   8   0.0089   0.0057   0.0099   0.0020   0.0058   0.0065   0.00   98.8    0.00000    0.00000    0.00000   0.00000  0.00000  0.00000  0.00000  0.00000  0.00000
2022/03/25 14:12:44.400   4160672.5816    677756.7158   4771005.8899   1   7   0.0090   0.0056   0.0100   0.0015   0.0059   0.0064   0.00   99.2    0.00000    0.00000    0.00000   0.00000  0.00000  0.00000  0.00000  0.00000  0.00000
2022/03/25 14:12:44.500   4160672.9511    677757.0625   4771005.5205   1   7   0.0089   0.0057   0.0100   0.0017   0.0058   0.0063   0.00  100.1    0.00000    0.00000    0.00000   0.00000  0.00000  0.00000  0.00000  0.00000  0.00000
2022/03/25 14:12:44.600   4160673.3029    677757.4283   4771005.1631   1   7   0.0089   0.0054   0.0099   0.0014   0.0060   0.0066   0.00  102.4    0.00000    0.00000    0.00000   0.00000  0.00000  0.00000  0.00000  0.00000  0.00000
2022/03/25 14:12:44.700   4160673.6532    677757.7725   4771004.7657   1   7   0.0090   0.0057   0.0100   0.0023   0.0058   0.0065   0.00  101.4    0.00000    0.00000    0.00000   0.00000  0.00000  0.00000  0.00000  0.00000  0.00000
2022/03/25 14:12:44.800   4160674.0066    677758.1057   4771004.3756   1   7   0.0089   0.0057   0.0099   0.0022   0.0056   0.0066   0.00  103.3    0.00000    0.00000    0.00000   0.00000  0.00000  0.00000  0.00000  0.00000  0.00000
2022/03/25 14:12:44.900   4160674.3667    677758.4469   4771003.9934   1   7   0.0090   0.0056   0.0099   0.0004   0.0058   0.0066   0.00  102.3    0.00000    0.00000    0.00000   0.00000  0.00000  0.00000  0.00000  0.00000  0.00000
2022/03/25 14:12:45.000   4160674.7402    677758.7808   4771003.6054   1   7   0.0090   0.0060   0.0100   0.0019   0.0055   0.0065   0.00  104.2    0.00000    0.00000    0.00000   0.00000  0.00000  0.00000  0.00000  0.00000  0.00000
2022/03/25 14:12:45.100   4160675.1004    677759.1251   4771003.2335   1   7   0.0089   0.0056   0.0100   0.0015   0.0058   0.0065   0.00  104.9    0.00000    0.00000    0.00000   0.00000  0.00000  0.00000  0.00000  0.00000  0.00000
2022/03/25 14:12:45.200   4160675.4763    677759.4572   4771002.8489   1   7   0.0089   0.0058   0.0100   0.0018   0.0056   0.0065   0.00  102.0    0.00000    0.00000    0.00000   0.00000  0.00000  0.00000  0.00000  0.00000  0.00000
2022/03/25 14:12:45.300   4160675.8804    677759.8225   4771002.5013   1   7   0.0103   0.0062   0.0107   0.0040   0.0066   0.0079   0.00   97.0    0.00000    0.00000    0.00000   0.00000  0.00000  0.00000  0.00000  0.00000  0.00000
2022/03/25 14:12:45.400   4160676.2297    677760.1364   4771002.0978   1   8   0.0096   0.0058   0.0103   0.0032   0.0063   0.0071   0.00   97.4    0.00000    0.00000    0.00000   0.00000  0.00000  0.00000  0.00000  0.00000  0.00000
2022/03/25 14:12:45.500   4160676.6094    677760.4616   4771001.7141   1   8   0.0089   0.0055   0.0094   0.0023   0.0051   0.0065   0.00    3.2    0.00000    0.00000    0.00000   0.00000  0.00000  0.00000  0.00000  0.00000  0.00000
2022/03/25 14:12:45.600   4160676.9997    677760.7963   4771001.3609   1   7   0.0102   0.0054   0.0089   0.0037   0.0050   0.0073   0.00    5.6    0.00000    0.00000    0.00000   0.00000  0.00000  0.00000  0.00000  0.00000  0.00000
2022/03/25 14:12:45.700   4160677.3912    677761.1380   4771000.9784   1   8   0.0090   0.0055   0.0089   0.0021   0.0043   0.0064   0.00    4.8    0.00000    0.00000    0.00000   0.00000  0.00000  0.00000  0.00000  0.00000  0.00000
2022/03/25 14:12:45.800   4160677.7335    677761.4693   4771000.5861   1   8   0.0134   0.0069   0.0103   0.0070   0.0068   0.0098   0.00   10.5    0.00000    0.00000    0.00000   0.00000  0.00000  0.00000  0.00000  0.00000  0.00000
2022/03/25 14:12:45.900   4160678.1145    677761.8060   4771000.2086   1   8   0.0114   0.0062   0.0096   0.0059   0.0059   0.0085   0.00   11.5    0.00000    0.00000    0.00000   0.00000  0.00000  0.00000  0.00000  0.00000  0.00000
2022/03/25 14:12:46.000   4160678.5224    677762.1430   4770999.8345   1  10   0.0098   0.0054   0.0094   0.0046   0.0055   0.0077   0.00    4.7    0.00000    0.00000    0.00000   0.00000  0.00000  0.00000  0.00000  0.00000  0.00000
2022/03/25 14:12:46.100   4160678.8794    677762.4519   4770999.4240   2  10   0.0119   0.0069   0.0123   0.0055   0.0076   0.0096   0.00    2.7    0.00000    0.00000    0.00000   0.00000  0.00000  0.00000  0.00000  0.00000  0.00000
2022/03/25 14:12:46.200   4160679.2434    677762.7596   4770999.0299   1   8   0.0117   0.0069   0.0108   0.0074   0.0074   0.0099   0.00    9.1    0.00000    0.00000    0.00000   0.00000  0.00000  0.00000  0.00000  0.00000  0.00000
2022/03/25 14:12:46.300   4160679.6390    677763.0734   4770998.6424   1   8   0.0116   0.0071   0.0110   0.0073   0.0073   0.0098   0.00   11.5    0.00000    0.00000    0.00000   0.00000  0.00000  0.00000  0.00000  0.00000  0.00000
2022/03/25 14:12:46.400   4160680.0084    677763.3891   4770998.2416   1   8   0.0116   0.0070   0.0109   0.0074   0.0073   0.0099   0.00   13.0    0.00000    0.00000    0.00000   0.00000  0.00000  0.00000  0.00000  0.00000  0.00000
2022/03/25 14:12:46.500   4160680.4106    677763.7116   4770997.8661   1   8   0.0117   0.0071   0.0109   0.0073   0.0074   0.0098   0.00   13.9    0.00000    0.00000    0.00000   0.00000  0.00000  0.00000  0.00000  0.00000  0.00000
2022/03/25 14:12:46.600   4160680.7830    677764.0389   4770997.4786   1   8   0.0117   0.0070   0.0109   0.0072   0.0074   0.0099   0.00   14.7    0.00000    0.00000    0.00000   0.00000  0.00000  0.00000  0.00000  0.00000  0.00000
2022/03/25 14:12:46.700   4160681.1570    677764.3329   4770997.0656   1   8   0.0119   0.0085   0.0128   0.0083   0.0092   0.0110   0.00   16.2    0.00000    0.00000    0.00000   0.00000  0.00000  0.00000  0.00000  0.00000  0.00000
2022/03/25 14:12:46.800   4160681.5297    677764.6343   4770996.6671   1   7   0.0120   0.0084   0.0129   0.0083   0.0093   0.0109   0.00   17.5    0.00000    0.00000    0.00000   0.00000  0.00000  0.00000  0.00000  0.00000  0.00000
2022/03/25 14:12:46.900   4160681.8912    677764.9467   4770996.2812   1   7   0.0143   0.0085   0.0130   0.0087   0.0092   0.0117   0.00   96.6    0.00000    0.00000    0.00000   0.00000  0.00000  0.00000  0.00000  0.00000  0.00000
2022/03/25 14:12:47.000   4160682.2932    677765.2510   4770995.9100   1   8   0.0141   0.0085   0.0152   0.0088   0.0097   0.0130   0.00   79.4    0.00000    0.00000    0.00000   0.00000  0.00000  0.00000  0.00000  0.00000  0.00000
2022/03/25 14:12:47.100   4160682.6958    677765.5663   4770995.5393   1   8   0.0123   0.0074   0.0131   0.0072   0.0082   0.0109   0.00   80.5    0.00000    0.00000    0.00000   0.00000  0.00000  0.00000  0.00000  0.00000  0.00000
2022/03/25 14:12:47.200   4160683.0789    677765.8710   4770995.1514   1   7   0.0112   0.0070   0.0118   0.0063   0.0077   0.0095   0.00    7.2    0.00000    0.00000    0.00000   0.00000  0.00000  0.00000  0.00000  0.00000  0.00000
2022/03/25 14:12:47.300   4160683.4539    677766.1766   4770994.7651   1   7   0.0116   0.0070   0.0116   0.0056   0.0074   0.0091   0.00    9.8    0.00000    0.00000    0.00000   0.00000  0.00000  0.00000  0.00000  0.00000  0.00000
2022/03/25 14:12:47.400   4160683.8590    677766.4310   4770994.3086   1   7   0.0179   0.0234   0.0288  -0.0167   0.0254  -0.0170   0.00   35.9    0.00000    0.00000    0.00000   0.00000  0.00000  0.00000  0.00000  0.00000  0.00000
2022/03/25 14:12:47.500   4160684.2349    677766.7322   4770993.9409   1   7   0.0148   0.0183   0.0230  -0.0118   0.0198  -0.0110   0.00   40.3    0.00000    0.00000    0.00000   0.00000  0.00000  0.00000  0.00000  0.00000  0.00000
2022/03/25 14:12:47.600   4160684.5949    677767.0293   4770993.5596   1   7   0.0131   0.0133   0.0176  -0.0087   0.0144  -0.0072   0.00   25.7    0.00000    0.00000    0.00000   0.00000  0.00000  0.00000  0.00000  0.00000  0.00000
2022/03/25 14:12:47.700   4160684.9992    677767.3055   4770993.1596   1   7   0.0124   0.0119   0.0161  -0.0073   0.0129  -0.0048   0.00   29.5    0.00000    0.00000    0.00000   0.00000  0.00000  0.00000  0.00000  0.00000  0.00000
2022/03/25 14:12:47.800   4160685.3460    677767.6173   4770992.7990   1   7   0.0103   0.0065   0.0109   0.0037   0.0071   0.0076   0.00    6.9    0.00000    0.00000    0.00000   0.00000  0.00000  0.00000  0.00000  0.00000  0.00000
2022/03/25 14:12:47.900   4160685.7500    677767.8950   4770992.3981   1   7   0.0173   0.0212   0.0265  -0.0163   0.0231  -0.0166   0.00   36.7    0.00000    0.00000    0.00000   0.00000  0.00000  0.00000  0.00000  0.00000  0.00000
2022/03/25 14:12:48.000   4160686.1178    677768.2166   4770992.0460   1   7   0.0173   0.0212   0.0265  -0.0162   0.0231  -0.0166   0.00   39.9    0.00000    0.00000    0.00000   0.00000  0.00000  0.00000  0.00000  0.00000  0.00000
2022/03/25 14:12:48.100   4160686.5375    677768.4912   4770991.6463   1   7   0.0142   0.0156   0.0202  -0.0111   0.0170  -0.0104   0.00   45.3    0.00000    0.00000    0.00000   0.00000  0.00000  0.00000  0.00000  0.00000  0.00000
2022/03/25 14:12:48.200   4160686.9229    677768.8136   4770991.3026   1   7   0.0104   0.0067   0.0111   0.0036   0.0073   0.0074   0.00    6.0    0.00000    0.00000    0.00000   0.00000  0.00000  0.00000  0.00000  0.00000  0.00000
2022/03/25 14:12:48.300   4160687.3261    677769.0796   4770990.9028   1   7   0.0103   0.0066   0.0110   0.0036   0.0072   0.0075   0.00    9.8    0.00000    0.00000    0.00000   0.00000  0.00000  0.00000  0.00000  0.00000  0.00000
2022/03/25 14:12:48.400   4160687.7154    677769.3683   4770990.5110   1   7   0.0103   0.0063   0.0107   0.0041   0.0067   0.0077   0.00    8.8    0.00000    0.00000    0.00000   0.00000  0.00000  0.00000  0.00000  0.00000  0.00000
2022/03/25 14:12:48.500   4160688.0599    677769.5947   4770990.0938   1   7   0.0856   0.0853   0.0697   0.0851   0.0768   0.0769   0.00    8.7    0.00000    0.00000    0.00000   0.00000  0.00000  0.00000  0.00000  0.00000  0.00000
2022/03/25 14:12:48.600   4160688.4378    677769.8522   4770989.6957   1   5   0.0856   0.0854   0.0697   0.0851   0.0769   0.0769   0.00    9.3    0.00000    0.00000    0.00000   0.00000  0.00000  0.00000  0.00000  0.00000  0.00000
2022/03/25 14:12:48.700   4160688.8501    677770.1558   4770989.3314   1   6   0.0610   0.0606   0.0499   0.0603   0.0545   0.0547   0.00    8.8    0.00000    0.00000    0.00000   0.00000  0.00000  0.00000  0.00000  0.00000  0.00000
2022/03/25 14:12:48.800   4160689.2517    677770.4118   4770988.9402   1   6   0.0512   0.0502   0.0419   0.0500   0.0454   0.0458   0.00    8.0    0.00000    0.00000    0.00000   0.00000  0.00000  0.00000  0.00000  0.00000  0.00000
2022/03/25 14:12:48.900   4160689.5860    677770.6356   4770988.5407   1   7   0.0448   0.0435   0.0364   0.0434   0.0393   0.0398   0.00    9.1    0.00000    0.00000    0.00000   0.00000  0.00000  0.00000  0.00000  0.00000  0.00000
2022/03/25 14:12:49.000   4160689.9287    677770.8589   4770988.1267   1   7   0.0405   0.0390   0.0328   0.0390   0.0352   0.0358   0.00    9.6    0.00000    0.00000    0.00000   0.00000  0.00000  0.00000  0.00000  0.00000  0.00000
2022/03/25 14:12:49.100   4160690.3265    677771.1313   4770987.7426   1   6   0.0374   0.0358   0.0302   0.0357   0.0322   0.0329   0.00   10.6    0.00000    0.00000    0.00000   0.00000  0.00000  0.00000  0.00000  0.00000  0.00000
2022/03/25 14:12:49.200   4160690.7095    677771.3868   4770987.3479   1   6   0.0351   0.0333   0.0282   0.0332   0.0300   0.0307   0.00   11.7    0.00000    0.00000    0.00000   0.00000  0.00000  0.00000  0.00000  0.00000  0.00000
2022/03/25 14:12:49.300   4160691.0947    677771.6516   4770986.9752   1   6   0.0332   0.0313   0.0266   0.0312   0.0282   0.0290   0.00   12.4    0.00000    0.00000    0.00000   0.00000  0.00000  0.00000  0.00000  0.00000  0.00000
2022/03/25 14:12:49.400   4160691.4780    677771.9139   4770986.5885   1   6   0.0316   0.0296   0.0254   0.0296   0.0267   0.0275   0.00   13.3    0.00000    0.00000    0.00000   0.00000  0.00000  0.00000  0.00000  0.00000  0.00000
2022/03/25 14:12:49.500   4160691.8428    677772.1657   4770986.1918   1   6   0.0304   0.0282   0.0243   0.0282   0.0254   0.0263   0.00   14.6    0.00000    0.00000    0.00000   0.00000  0.00000  0.00000  0.00000  0.00000  0.00000
2022/03/25 14:12:49.600   4160692.2868    677772.4777   4770985.8546   1   7   0.0139   0.0078   0.0104   0.0080   0.0072   0.0101   0.00    7.0    0.00000    0.00000    0.00000   0.00000  0.00000  0.00000  0.00000  0.00000  0.00000
2022/03/25 14:12:49.700   4160692.6682    677772.7178   4770985.4678   1   7   0.0134   0.0068   0.0102   0.0069   0.0069   0.0098   0.00    8.1    0.00000    0.00000    0.00000   0.00000  0.00000  0.00000  0.00000  0.00000  0.00000
2022/03/25 14:12:49.800   4160693.0650    677772.9779   4770985.1022   1   8   0.0135   0.0066   0.0100   0.0071   0.0064   0.0098   0.00    9.8    0.00000    0.00000    0.00000   0.00000  0.00000  0.00000  0.00000  0.00000  0.00000
2022/03/25 14:12:49.900   4160693.4391    677773.2205   4770984.7121   1   8   0.0142   0.0077   0.0120   0.0083   0.0082   0.0113   0.00    8.1    0.00000    0.00000    0.00000   0.00000  0.00000  0.00000  0.00000  0.00000  0.00000
2022/03/25 14:12:50.000   4160693.8472    677773.4720   4770984.3562   1   7   0.0142   0.0075   0.0118   0.0082   0.0081   0.0112   0.00    9.7    0.00000    0.00000    0.00000   0.00000  0.00000  0.00000  0.00000  0.00000  0.00000
2022/03/25 14:12:50.100   4160694.2109    677773.7046   4770983.9606   1   7   0.0142   0.0072   0.0114   0.0081   0.0076   0.0111   0.00   12.2    0.00000    0.00000    0.00000   0.00000  0.00000  0.00000  0.00000  0.00000  0.00000
2022/03/25 14:12:50.200   4160694.5869    677773.9464   4770983.5709   1   8   0.0103   0.0070   0.0107   0.0070   0.0072   0.0093   0.00    6.3    0.00000    0.00000    0.00000   0.00000  0.00000  0.00000  0.00000  0.00000  0.00000
2022/03/25 14:12:50.300   4160694.9646    677774.1768   4770983.1802   1   8   0.0104   0.0069   0.0108   0.0070   0.0073   0.0093   0.00    6.7    0.00000    0.00000    0.00000   0.00000  0.00000  0.00000  0.00000  0.00000  0.00000
2022/03/25 14:12:50.400   4160695.3665    677774.4405   4770982.8370   1   8   0.0100   0.0062   0.0097   0.0063   0.0062   0.0087   0.00    9.1    0.00000    0.00000    0.00000   0.00000  0.00000  0.00000  0.00000  0.00000  0.00000
2022/03/25 14:12:50.500   4160695.7767    677774.7200   4770982.5080   1   8   0.0101   0.0064   0.0097   0.0065   0.0060   0.0087   0.00    6.0    0.00000    0.00000    0.00000   0.00000  0.00000  0.00000  0.00000  0.00000  0.00000
2022/03/25 14:12:50.600   4160696.1736    677774.9765   4770982.1652   1   8   0.0104   0.0071   0.0107   0.0070   0.0072   0.0094   0.00    7.6    0.00000    0.00000    0.00000   0.00000  0.00000  0.00000  0.00000  0.00000  0.00000
2022/03/25 14:12:50.700   4160696.4861    677775.1147   4770981.6543   1   8   0.0111   0.0085   0.0128   0.0081   0.0092   0.0106   0.00   19.2    0.00000    0.00000    0.00000   0.00000  0.00000  0.00000  0.00000  0.00000  0.00000
2022/03/25 14:12:50.800   4160696.8747    677775.3513   4770981.2943   1   8   0.0087   0.0060   0.0106   0.0051   0.0065   0.0081   0.00    3.7    0.00000    0.00000    0.00000   0.00000  0.00000  0.00000  0.00000  0.00000  0.00000
2022/03/25 14:12:50.900   4160697.2588    677775.5794   4770980.9250   1   8   0.0088   0.0061   0.0106   0.0053   0.0065   0.0080   0.00    6.3    0.00000    0.00000    0.00000   0.00000  0.00000  0.00000  0.00000  0.00000  0.00000
2022/03/25 14:12:51.000   4160697.6267    677775.7996   4770980.5389   1   8   0.0088   0.0058   0.0106   0.0053   0.0065   0.0080   0.00    8.7    0.00000    0.00000    0.00000   0.00000  0.00000  0.00000  0.00000  0.00000  0.00000
2022/03/25 14:12:51.100   4160698.0223    677776.0263   4770980.1638   1   8   0.0085   0.0060   0.0107   0.0049   0.0067   0.0080   0.00   10.5    0.00000    0.00000    0.00000   0.00000  0.00000  0.00000  0.00000  0.00000  0.00000
2022/03/25 14:12:51.200   4160698.3955    677776.2445   4770979.7790   1   8   0.0086   0.0060   0.0106   0.0052   0.0064   0.0079   0.00   13.0    0.00000    0.00000    0.00000   0.00000  0.00000  0.00000  0.00000  0.00000  0.00000
2022/03/25 14:12:51.300   4160698.7828    677776.4617   4770979.3963   1   8   0.0087   0.0061   0.0106   0.0055   0.0064   0.0079   0.00   15.5    0.00000    0.00000    0.00000   0.00000  0.00000  0.00000  0.00000  0.00000  0.00000
2022/03/25 14:12:51.400   4160699.1719    677776.6819   4770979.0241   1   8   0.0087   0.0061   0.0105   0.0052   0.0065   0.0081   0.00   17.6    0.00000    0.00000    0.00000   0.00000  0.00000  0.00000  0.00000  0.00000  0.00000
2022/03/25 14:12:51.500   4160699.5690    677776.9174   4770978.6639   1   8   0.0087   0.0058   0.0105   0.0050   0.0067   0.0082   0.00   20.8    0.00000    0.00000    0.00000   0.00000  0.00000  0.00000  0.00000  0.00000  0.00000
2022/03/25 14:12:51.600   4160699.9582    677777.1163   4770978.2478   1   8   0.0087   0.0059   0.0105   0.0049   0.0066   0.0081   0.00   22.4    0.00000    0.00000    0.00000   0.00000  0.00000  0.00000  0.00000  0.00000  0.00000
2022/03/25 14:12:51.700   4160700.3455    677777.3316   4770977.8522   1   8   0.0087   0.0062   0.0105   0.0050   0.0064   0.0080   0.00   25.2    0.00000    0.00000    0.00000   0.00000  0.00000  0.00000  0.00000  0.00000  0.00000
2022/03/25 14:12:51.800   4160700.7517    677777.5547   4770977.4679   1   8   0.0087   0.0058   0.0106   0.0049   0.0067   0.0080   0.00   26.5    0.00000    0.00000    0.00000   0.00000  0.00000  0.00000  0.00000  0.00000  0.00000
2022/03/25 14:12:51.900   4160701.1902    677777.7947   4770977.0915   1   8   0.0088   0.0059   0.0106   0.0050   0.0067   0.0080   0.00   29.6    0.00000    0.00000    0.00000   0.00000  0.00000  0.00000  0.00000  0.00000  0.00000
2022/03/25 14:12:52.000   4160701.5807    677778.0158   4770976.6791   1   7   0.0109   0.0084   0.0127   0.0080   0.0093   0.0106   0.00   38.7    0.00000    0.00000    0.00000   0.00000  0.00000  0.00000  0.00000  0.00000  0.00000
2022/03/25 14:12:52.100   4160701.9897    677778.2407   4770976.2970   1   7   0.0109   0.0085   0.0127   0.0082   0.0091   0.0107   0.00   39.6    0.00000    0.00000    0.00000   0.00000  0.00000  0.00000  0.00000  0.00000  0.00000
2022/03/25 14:12:52.200   4160702.4170    677778.4703   4770975.8983   1   7   0.0110   0.0085   0.0128   0.0081   0.0092   0.0106   0.00   40.4    0.00000    0.00000    0.00000   0.00000  0.00000  0.00000  0.00000  0.00000  0.00000
2022/03/25 14:12:52.300   4160702.8408    677778.6853   4770975.4884   1   7   0.0109   0.0085   0.0128   0.0081   0.0092   0.0105   0.00   40.8    0.00000    0.00000    0.00000   0.00000  0.00000  0.00000  0.00000  0.00000  0.00000
2022/03/25 14:12:52.400   4160703.2532    677778.9155   4770975.0998   1   8   0.0109   0.0085   0.0128   0.0081   0.0093   0.0106   0.00   42.8    0.00000    0.00000    0.00000   0.00000  0.00000  0.00000  0.00000  0.00000  0.00000
2022/03/25 14:12:52.500   4160703.6525    677779.0982   4770974.6563   1   8   0.0105   0.0077   0.0114   0.0072   0.0081   0.0098   0.00   43.3    0.00000    0.00000    0.00000   0.00000  0.00000  0.00000  0.00000  0.00000  0.00000
2022/03/25 14:12:52.600   4160704.0626    677779.2913   4770974.2212   1   9   0.0100   0.0064   0.0096   0.0065   0.0063   0.0086   0.00    8.4    0.00000    0.00000    0.00000   0.00000  0.00000  0.00000  0.00000  0.00000  0.00000
2022/03/25 14:12:52.700   4160704.4965    677779.5104   4770973.8136   1   8   0.0101   0.0067   0.0101   0.0067   0.0067   0.0087   0.00   10.3    0.00000    0.00000    0.00000   0.00000  0.00000  0.00000  0.00000  0.00000  0.00000
2022/03/25 14:12:52.800   4160704.9238    677779.7293   4770973.3918   1   8   0.0100   0.0068   0.0100   0.0066   0.0067   0.0089   0.00   12.5    0.00000    0.00000    0.00000   0.00000  0.00000  0.00000  0.00000  0.00000  0.00000
2022/03/25 14:12:52.900   4160705.3657    677779.9511   4770972.9670   1   8   0.0101   0.0068   0.0100   0.0067   0.0067   0.0088   0.00   14.2    0.00000    0.00000    0.00000   0.00000  0.00000  0.00000  0.00000  0.00000  0.00000
2022/03/25 14:12:53.000   4160705.8108    677780.1796   4770972.5451   1   8   0.0099   0.0061   0.0087   0.0061   0.0051   0.0080   0.00    6.2    0.00000    0.00000    0.00000   0.00000  0.00000  0.00000  0.00000  0.00000  0.00000
